{
"type": "FeatureCollection",
"name": "sp_municipios_centroids",
"crs": { "type": "name", "properties": { "name": "urn:ogc:def:crs:OGC:1.3:CRS84" } },
"features": [
{ "type": "Feature", "properties": { "codigo_municipio": "3513009", "nome_municipio": "Cotia", "area_km2": 323.994, "nome_regiao_imediata": "São Paulo", "nome_rgi": "São Paulo" }, "geometry": { "type": "Point", "coordinates": [ -46.960512331155044, -23.675154400598291 ] } },
{ "type": "Feature", "properties": { "codigo_municipio": "3532827", "nome_municipio": "Nova Campina", "area_km2": 385.375, "nome_regiao_imediata": "Sorocaba", "nome_rgi": "Itapeva" }, "geometry": { "type": "Point", "coordinates": [ -48.972913350221901, -24.19062212735448 ] } },
{ "type": "Feature", "properties": { "codigo_municipio": "3502507", "nome_municipio": "Aparecida", "area_km2": 120.89, "nome_regiao_imediata": "São José dos Campos", "nome_rgi": "Guaratinguetá" }, "geometry": { "type": "Point", "coordinates": [ -45.237219217394362, -22.914206040127134 ] } },
{ "type": "Feature", "properties": { "codigo_municipio": "3543303", "nome_municipio": "Ribeirão Pires", "area_km2": 98.972, "nome_regiao_imediata": "São Paulo", "nome_rgi": "São Paulo" }, "geometry": { "type": "Point", "coordinates": [ -46.402803984646951, -23.701078895008695 ] } },
{ "type": "Feature", "properties": { "codigo_municipio": "3542008", "nome_municipio": "Quintana", "area_km2": 318.937, "nome_regiao_imediata": "Marília", "nome_rgi": "Marília" }, "geometry": { "type": "Point", "coordinates": [ -50.369275353427689, -22.100195026178088 ] } },
{ "type": "Feature", "properties": { "codigo_municipio": "3545100", "nome_municipio": "Salmourão", "area_km2": 172.934, "nome_regiao_imediata": "Presidente Prudente", "nome_rgi": "Adamantina - Lucélia" }, "geometry": { "type": "Point", "coordinates": [ -50.87629611896304, -21.588038862741328 ] } },
{ "type": "Feature", "properties": { "codigo_municipio": "3532801", "nome_municipio": "Nova Aliança", "area_km2": 217.515, "nome_regiao_imediata": "São José do Rio Preto", "nome_rgi": "São José do Rio Preto" }, "geometry": { "type": "Point", "coordinates": [ -49.515975690545069, -21.062620754515201 ] } },
{ "type": "Feature", "properties": { "codigo_municipio": "3535903", "nome_municipio": "Paranapuã", "area_km2": 140.354, "nome_regiao_imediata": "São José do Rio Preto", "nome_rgi": "Jales" }, "geometry": { "type": "Point", "coordinates": [ -50.594044694159862, -20.063770956772441 ] } },
{ "type": "Feature", "properties": { "codigo_municipio": "3522802", "nome_municipio": "Itaporanga", "area_km2": 507.997, "nome_regiao_imediata": "Sorocaba", "nome_rgi": "Itapeva" }, "geometry": { "type": "Point", "coordinates": [ -49.45849135508454, -23.672949422026729 ] } },
{ "type": "Feature", "properties": { "codigo_municipio": "3525904", "nome_municipio": "Jundiaí", "area_km2": 431.204, "nome_regiao_imediata": "Campinas", "nome_rgi": "Jundiaí" }, "geometry": { "type": "Point", "coordinates": [ -46.913011931724306, -23.194602028794943 ] } },
{ "type": "Feature", "properties": { "codigo_municipio": "3534609", "nome_municipio": "Osvaldo Cruz", "area_km2": 248.038, "nome_regiao_imediata": "Presidente Prudente", "nome_rgi": "Adamantina - Lucélia" }, "geometry": { "type": "Point", "coordinates": [ -50.873886453806172, -21.732734496385547 ] } },
{ "type": "Feature", "properties": { "codigo_municipio": "3516101", "nome_municipio": "Florínea", "area_km2": 225.886, "nome_regiao_imediata": "Marília", "nome_rgi": "Assis" }, "geometry": { "type": "Point", "coordinates": [ -50.695312295796825, -22.881208729807241 ] } },
{ "type": "Feature", "properties": { "codigo_municipio": "3508207", "nome_municipio": "Buritizal", "area_km2": 266.42, "nome_regiao_imediata": "Ribeirão Preto", "nome_rgi": "Ituverava" }, "geometry": { "type": "Point", "coordinates": [ -47.692934174283394, -20.209317740056878 ] } },
{ "type": "Feature", "properties": { "codigo_municipio": "3506904", "nome_municipio": "Bofete", "area_km2": 653.541, "nome_regiao_imediata": "Bauru", "nome_rgi": "Botucatu" }, "geometry": { "type": "Point", "coordinates": [ -48.285871476147143, -23.128969643641732 ] } },
{ "type": "Feature", "properties": { "codigo_municipio": "3532868", "nome_municipio": "Nova Castilho", "area_km2": 183.396, "nome_regiao_imediata": "Araçatuba", "nome_rgi": "Araçatuba" }, "geometry": { "type": "Point", "coordinates": [ -50.345753477187138, -20.777819776364812 ] } },
{ "type": "Feature", "properties": { "codigo_municipio": "3539400", "nome_municipio": "Piratininga", "area_km2": 402.409, "nome_regiao_imediata": "Bauru", "nome_rgi": "Bauru" }, "geometry": { "type": "Point", "coordinates": [ -49.191797084685383, -22.424952709086941 ] } },
{ "type": "Feature", "properties": { "codigo_municipio": "3524600", "nome_municipio": "Jacupiranga", "area_km2": 704.136, "nome_regiao_imediata": "Sorocaba", "nome_rgi": "Registro" }, "geometry": { "type": "Point", "coordinates": [ -48.053875138664957, -24.777358894264697 ] } },
{ "type": "Feature", "properties": { "codigo_municipio": "3538105", "nome_municipio": "Pindorama", "area_km2": 184.825, "nome_regiao_imediata": "São José do Rio Preto", "nome_rgi": "Catanduva" }, "geometry": { "type": "Point", "coordinates": [ -48.911629330252396, -21.209818861810835 ] } },
{ "type": "Feature", "properties": { "codigo_municipio": "3528700", "nome_municipio": "Marabá Paulista", "area_km2": 919.519, "nome_regiao_imediata": "Presidente Prudente", "nome_rgi": "Presidente Epitácio-Presidente Venceslau" }, "geometry": { "type": "Point", "coordinates": [ -52.056586004835495, -22.127697667921627 ] } },
{ "type": "Feature", "properties": { "codigo_municipio": "3511508", "nome_municipio": "Cerquilho", "area_km2": 127.803, "nome_regiao_imediata": "Sorocaba", "nome_rgi": "Sorocaba" }, "geometry": { "type": "Point", "coordinates": [ -47.757133285604212, -23.187123398035684 ] } },
{ "type": "Feature", "properties": { "codigo_municipio": "3532843", "nome_municipio": "Nova Canaã Paulista", "area_km2": 124.473, "nome_regiao_imediata": "São José do Rio Preto", "nome_rgi": "Santa Fé do Sul" }, "geometry": { "type": "Point", "coordinates": [ -50.91055884584506, -20.372050999117334 ] } },
{ "type": "Feature", "properties": { "codigo_municipio": "3553104", "nome_municipio": "Taiaçu", "area_km2": 107.059, "nome_regiao_imediata": "Ribeirão Preto", "nome_rgi": "Barretos" }, "geometry": { "type": "Point", "coordinates": [ -48.530297661981223, -21.132183104589473 ] } },
{ "type": "Feature", "properties": { "codigo_municipio": "3500808", "nome_municipio": "Alfredo Marcondes", "area_km2": 118.915, "nome_regiao_imediata": "Presidente Prudente", "nome_rgi": "Presidente Prudente" }, "geometry": { "type": "Point", "coordinates": [ -51.395654975654089, -21.934972952987927 ] } },
{ "type": "Feature", "properties": { "codigo_municipio": "3541604", "nome_municipio": "Promissão", "area_km2": 779.2, "nome_regiao_imediata": "Bauru", "nome_rgi": "Lins" }, "geometry": { "type": "Point", "coordinates": [ -49.870465058422838, -21.524519973109747 ] } },
{ "type": "Feature", "properties": { "codigo_municipio": "3510203", "nome_municipio": "Capão Bonito", "area_km2": 1640.229, "nome_regiao_imediata": "Sorocaba", "nome_rgi": "Itapeva" }, "geometry": { "type": "Point", "coordinates": [ -48.289840889139477, -24.039201549842417 ] } },
{ "type": "Feature", "properties": { "codigo_municipio": "3505609", "nome_municipio": "Barrinha", "area_km2": 146.025, "nome_regiao_imediata": "Ribeirão Preto", "nome_rgi": "Ribeirão Preto" }, "geometry": { "type": "Point", "coordinates": [ -48.095055316994575, -21.232548415129841 ] } },
{ "type": "Feature", "properties": { "codigo_municipio": "3540309", "nome_municipio": "Pontes Gestal", "area_km2": 217.505, "nome_regiao_imediata": "São José do Rio Preto", "nome_rgi": "Votuporanga" }, "geometry": { "type": "Point", "coordinates": [ -49.757379788592615, -20.174828253873105 ] } },
{ "type": "Feature", "properties": { "codigo_municipio": "3541653", "nome_municipio": "Quadra", "area_km2": 205.672, "nome_regiao_imediata": "Sorocaba", "nome_rgi": "Tatuí" }, "geometry": { "type": "Point", "coordinates": [ -48.038616907753408, -23.30101755243621 ] } },
{ "type": "Feature", "properties": { "codigo_municipio": "3545159", "nome_municipio": "Saltinho", "area_km2": 99.738, "nome_regiao_imediata": "Campinas", "nome_rgi": "Piracicaba" }, "geometry": { "type": "Point", "coordinates": [ -47.731825539666239, -22.87121308093829 ] } },
{ "type": "Feature", "properties": { "codigo_municipio": "3527405", "nome_municipio": "Lucélia", "area_km2": 314.81, "nome_regiao_imediata": "Presidente Prudente", "nome_rgi": "Adamantina - Lucélia" }, "geometry": { "type": "Point", "coordinates": [ -50.991662220169353, -21.644140129948973 ] } },
{ "type": "Feature", "properties": { "codigo_municipio": "3542909", "nome_municipio": "Ribeirão Bonito", "area_km2": 471.553, "nome_regiao_imediata": "Araraquara", "nome_rgi": "São Carlos" }, "geometry": { "type": "Point", "coordinates": [ -48.185329346414214, -22.060115635970142 ] } },
{ "type": "Feature", "properties": { "codigo_municipio": "3517406", "nome_municipio": "Guaíra", "area_km2": 1258.465, "nome_regiao_imediata": "Ribeirão Preto", "nome_rgi": "Barretos" }, "geometry": { "type": "Point", "coordinates": [ -48.364137109239692, -20.314037481289564 ] } },
{ "type": "Feature", "properties": { "codigo_municipio": "3526100", "nome_municipio": "Juquiá", "area_km2": 812.799, "nome_regiao_imediata": "Sorocaba", "nome_rgi": "Registro" }, "geometry": { "type": "Point", "coordinates": [ -47.652268342881484, -24.213666919397291 ] } },
{ "type": "Feature", "properties": { "codigo_municipio": "3547700", "nome_municipio": "Santo Anastácio", "area_km2": 552.876, "nome_regiao_imediata": "Presidente Prudente", "nome_rgi": "Presidente Prudente" }, "geometry": { "type": "Point", "coordinates": [ -51.722519602998446, -22.037656947711557 ] } },
{ "type": "Feature", "properties": { "codigo_municipio": "3546405", "nome_municipio": "Santa Cruz do Rio Pardo", "area_km2": 1114.747, "nome_regiao_imediata": "Marília", "nome_rgi": "Ourinhos" }, "geometry": { "type": "Point", "coordinates": [ -49.568954348965569, -22.809313145201305 ] } },
{ "type": "Feature", "properties": { "codigo_municipio": "3549508", "nome_municipio": "São José da Bela Vista", "area_km2": 276.952, "nome_regiao_imediata": "Ribeirão Preto", "nome_rgi": "Franca" }, "geometry": { "type": "Point", "coordinates": [ -47.627173656257398, -20.58753015224249 ] } },
{ "type": "Feature", "properties": { "codigo_municipio": "3550308", "nome_municipio": "São Paulo", "area_km2": 1521.202, "nome_regiao_imediata": "São Paulo", "nome_rgi": "São Paulo" }, "geometry": { "type": "Point", "coordinates": [ -46.648096605284884, -23.650080199720747 ] } },
{ "type": "Feature", "properties": { "codigo_municipio": "3503000", "nome_municipio": "Aramina", "area_km2": 202.829, "nome_regiao_imediata": "Ribeirão Preto", "nome_rgi": "Ituverava" }, "geometry": { "type": "Point", "coordinates": [ -47.820643772479904, -20.145046042174975 ] } },
{ "type": "Feature", "properties": { "codigo_municipio": "3548203", "nome_municipio": "Santo Antônio do Pinhal", "area_km2": 133.008, "nome_regiao_imediata": "São José dos Campos", "nome_rgi": "Taubaté - Pindamonhangaba" }, "geometry": { "type": "Point", "coordinates": [ -45.698050022235151, -22.83177262622922 ] } },
{ "type": "Feature", "properties": { "codigo_municipio": "3518701", "nome_municipio": "Guarujá", "area_km2": 144.794, "nome_regiao_imediata": "São Paulo", "nome_rgi": "Santos" }, "geometry": { "type": "Point", "coordinates": [ -46.235214083878539, -23.951245327891868 ] } },
{ "type": "Feature", "properties": { "codigo_municipio": "3533304", "nome_municipio": "Nova Luzitânia", "area_km2": 73.816, "nome_regiao_imediata": "Araçatuba", "nome_rgi": "Araçatuba" }, "geometry": { "type": "Point", "coordinates": [ -50.249361150719857, -20.868657220619202 ] } },
{ "type": "Feature", "properties": { "codigo_municipio": "3532009", "nome_municipio": "Morungaba", "area_km2": 146.752, "nome_regiao_imediata": "Campinas", "nome_rgi": "Jundiaí" }, "geometry": { "type": "Point", "coordinates": [ -46.782544424703559, -22.893861195379724 ] } },
{ "type": "Feature", "properties": { "codigo_municipio": "3523305", "nome_municipio": "Itariri", "area_km2": 273.667, "nome_regiao_imediata": "São Paulo", "nome_rgi": "Santos" }, "geometry": { "type": "Point", "coordinates": [ -47.128140111790984, -24.292685200259896 ] } },
{ "type": "Feature", "properties": { "codigo_municipio": "3552700", "nome_municipio": "Tabatinga", "area_km2": 368.604, "nome_regiao_imediata": "Araraquara", "nome_rgi": "Araraquara" }, "geometry": { "type": "Point", "coordinates": [ -48.629059606361736, -21.712522059226742 ] } },
{ "type": "Feature", "properties": { "codigo_municipio": "3513900", "nome_municipio": "Divinolândia", "area_km2": 223.749, "nome_regiao_imediata": "Campinas", "nome_rgi": "São José do Rio Pardo - Mococa" }, "geometry": { "type": "Point", "coordinates": [ -46.697408172619035, -21.661679039549398 ] } },
{ "type": "Feature", "properties": { "codigo_municipio": "3535101", "nome_municipio": "Palmares Paulista", "area_km2": 82.125, "nome_regiao_imediata": "São José do Rio Preto", "nome_rgi": "Catanduva" }, "geometry": { "type": "Point", "coordinates": [ -48.82666529540456, -21.104713773967116 ] } },
{ "type": "Feature", "properties": { "codigo_municipio": "3522000", "nome_municipio": "Itaju", "area_km2": 230.355, "nome_regiao_imediata": "Bauru", "nome_rgi": "Jaú" }, "geometry": { "type": "Point", "coordinates": [ -48.793953394230563, -21.95161935841686 ] } },
{ "type": "Feature", "properties": { "codigo_municipio": "3504305", "nome_municipio": "Avaí", "area_km2": 540.689, "nome_regiao_imediata": "Bauru", "nome_rgi": "Bauru" }, "geometry": { "type": "Point", "coordinates": [ -49.316211755266906, -22.187185933083608 ] } },
{ "type": "Feature", "properties": { "codigo_municipio": "3512605", "nome_municipio": "Coronel Macedo", "area_km2": 303.83, "nome_regiao_imediata": "Sorocaba", "nome_rgi": "Avaré" }, "geometry": { "type": "Point", "coordinates": [ -49.306862454950924, -23.630119994666018 ] } },
{ "type": "Feature", "properties": { "codigo_municipio": "3525102", "nome_municipio": "Jardinópolis", "area_km2": 501.87, "nome_regiao_imediata": "Ribeirão Preto", "nome_rgi": "Ribeirão Preto" }, "geometry": { "type": "Point", "coordinates": [ -47.826030574942514, -20.992054498493374 ] } },
{ "type": "Feature", "properties": { "codigo_municipio": "3515707", "nome_municipio": "Ferraz de Vasconcelos", "area_km2": 29.547, "nome_regiao_imediata": "São Paulo", "nome_rgi": "São Paulo" }, "geometry": { "type": "Point", "coordinates": [ -46.373925705036498, -23.561036705385771 ] } },
{ "type": "Feature", "properties": { "codigo_municipio": "3506102", "nome_municipio": "Bebedouro", "area_km2": 683.192, "nome_regiao_imediata": "Ribeirão Preto", "nome_rgi": "Barretos" }, "geometry": { "type": "Point", "coordinates": [ -48.51074879733595, -20.940451120864008 ] } },
{ "type": "Feature", "properties": { "codigo_municipio": "3556206", "nome_municipio": "Valinhos", "area_km2": 148.538, "nome_regiao_imediata": "Campinas", "nome_rgi": "Campinas" }, "geometry": { "type": "Point", "coordinates": [ -46.981284411087067, -22.975115353762231 ] } },
{ "type": "Feature", "properties": { "codigo_municipio": "3529203", "nome_municipio": "Martinópolis", "area_km2": 1254.032, "nome_regiao_imediata": "Presidente Prudente", "nome_rgi": "Presidente Prudente" }, "geometry": { "type": "Point", "coordinates": [ -51.123482542011082, -22.172452438497089 ] } },
{ "type": "Feature", "properties": { "codigo_municipio": "3514403", "nome_municipio": "Dracena", "area_km2": 487.688, "nome_regiao_imediata": "Presidente Prudente", "nome_rgi": "Dracena" }, "geometry": { "type": "Point", "coordinates": [ -51.584048545944398, -21.556711919921199 ] } },
{ "type": "Feature", "properties": { "codigo_municipio": "3544707", "nome_municipio": "Sagres", "area_km2": 147.935, "nome_regiao_imediata": "Presidente Prudente", "nome_rgi": "Adamantina - Lucélia" }, "geometry": { "type": "Point", "coordinates": [ -50.990284345196947, -21.867799759041169 ] } },
{ "type": "Feature", "properties": { "codigo_municipio": "3519204", "nome_municipio": "Iacri", "area_km2": 321.948, "nome_regiao_imediata": "Marília", "nome_rgi": "Tupã" }, "geometry": { "type": "Point", "coordinates": [ -50.6194585441892, -21.799867246526428 ] } },
{ "type": "Feature", "properties": { "codigo_municipio": "3551405", "nome_municipio": "Serra Azul", "area_km2": 283.144, "nome_regiao_imediata": "Ribeirão Preto", "nome_rgi": "Ribeirão Preto" }, "geometry": { "type": "Point", "coordinates": [ -47.549694165025251, -21.316059336658487 ] } },
{ "type": "Feature", "properties": { "codigo_municipio": "3501301", "nome_municipio": "Álvares Machado", "area_km2": 347.647, "nome_regiao_imediata": "Presidente Prudente", "nome_rgi": "Presidente Prudente" }, "geometry": { "type": "Point", "coordinates": [ -51.514920330955938, -22.131504673870399 ] } },
{ "type": "Feature", "properties": { "codigo_municipio": "3532058", "nome_municipio": "Motuca", "area_km2": 228.7, "nome_regiao_imediata": "Araraquara", "nome_rgi": "Araraquara" }, "geometry": { "type": "Point", "coordinates": [ -48.170320757964944, -21.513806706721891 ] } },
{ "type": "Feature", "properties": { "codigo_municipio": "3531605", "nome_municipio": "Monte Castelo", "area_km2": 233.547, "nome_regiao_imediata": "Presidente Prudente", "nome_rgi": "Dracena" }, "geometry": { "type": "Point", "coordinates": [ -51.571367176075995, -21.254858595555724 ] } },
{ "type": "Feature", "properties": { "codigo_municipio": "3519253", "nome_municipio": "Iaras", "area_km2": 401.381, "nome_regiao_imediata": "Sorocaba", "nome_rgi": "Avaré" }, "geometry": { "type": "Point", "coordinates": [ -49.106836021727496, -22.819139958326218 ] } },
{ "type": "Feature", "properties": { "codigo_municipio": "3521606", "nome_municipio": "Irapuru", "area_km2": 214.461, "nome_regiao_imediata": "Presidente Prudente", "nome_rgi": "Dracena" }, "geometry": { "type": "Point", "coordinates": [ -51.346482232318898, -21.484153559106232 ] } },
{ "type": "Feature", "properties": { "codigo_municipio": "3530300", "nome_municipio": "Mirassol", "area_km2": 243.228, "nome_regiao_imediata": "São José do Rio Preto", "nome_rgi": "São José do Rio Preto" }, "geometry": { "type": "Point", "coordinates": [ -49.50425762298471, -20.827678324201884 ] } },
{ "type": "Feature", "properties": { "codigo_municipio": "3555802", "nome_municipio": "Urânia", "area_km2": 209.262, "nome_regiao_imediata": "São José do Rio Preto", "nome_rgi": "Jales" }, "geometry": { "type": "Point", "coordinates": [ -50.652528111960876, -20.208924832585403 ] } },
{ "type": "Feature", "properties": { "codigo_municipio": "3520301", "nome_municipio": "Iguape", "area_km2": 1978.795, "nome_regiao_imediata": "Sorocaba", "nome_rgi": "Registro" }, "geometry": { "type": "Point", "coordinates": [ -47.47440283110852, -24.549538271625146 ] } },
{ "type": "Feature", "properties": { "codigo_municipio": "3543402", "nome_municipio": "Ribeirão Preto", "area_km2": 650.916, "nome_regiao_imediata": "Ribeirão Preto", "nome_rgi": "Ribeirão Preto" }, "geometry": { "type": "Point", "coordinates": [ -47.82130302041304, -21.210842625354005 ] } },
{ "type": "Feature", "properties": { "codigo_municipio": "3554508", "nome_municipio": "Tietê", "area_km2": 404.396, "nome_regiao_imediata": "Sorocaba", "nome_rgi": "Sorocaba" }, "geometry": { "type": "Point", "coordinates": [ -47.707652739215845, -23.049436253319392 ] } },
{ "type": "Feature", "properties": { "codigo_municipio": "3542107", "nome_municipio": "Rafard", "area_km2": 121.645, "nome_regiao_imediata": "Campinas", "nome_rgi": "Piracicaba" }, "geometry": { "type": "Point", "coordinates": [ -47.583775883091064, -23.045163525806782 ] } },
{ "type": "Feature", "properties": { "codigo_municipio": "3540804", "nome_municipio": "Potirendaba", "area_km2": 342.492, "nome_regiao_imediata": "São José do Rio Preto", "nome_rgi": "São José do Rio Preto" }, "geometry": { "type": "Point", "coordinates": [ -49.391730625097324, -21.07554311031468 ] } },
{ "type": "Feature", "properties": { "codigo_municipio": "3507407", "nome_municipio": "Borborema", "area_km2": 552.256, "nome_regiao_imediata": "Araraquara", "nome_rgi": "Araraquara" }, "geometry": { "type": "Point", "coordinates": [ -49.07199112772394, -21.610776967104389 ] } },
{ "type": "Feature", "properties": { "codigo_municipio": "3532900", "nome_municipio": "Nova Europa", "area_km2": 160.25, "nome_regiao_imediata": "Araraquara", "nome_rgi": "Araraquara" }, "geometry": { "type": "Point", "coordinates": [ -48.549671239415169, -21.774335753814039 ] } },
{ "type": "Feature", "properties": { "codigo_municipio": "3522901", "nome_municipio": "Itapuí", "area_km2": 140.023, "nome_regiao_imediata": "Bauru", "nome_rgi": "Jaú" }, "geometry": { "type": "Point", "coordinates": [ -48.701449725839673, -22.250825111584902 ] } },
{ "type": "Feature", "properties": { "codigo_municipio": "3537701", "nome_municipio": "Piacatu", "area_km2": 232.488, "nome_regiao_imediata": "Araçatuba", "nome_rgi": "Birigui - Penápolis" }, "geometry": { "type": "Point", "coordinates": [ -50.643600210811933, -21.57133978559466 ] } },
{ "type": "Feature", "properties": { "codigo_municipio": "3536406", "nome_municipio": "Paulicéia", "area_km2": 374.091, "nome_regiao_imediata": "Presidente Prudente", "nome_rgi": "Dracena" }, "geometry": { "type": "Point", "coordinates": [ -51.7907214908928, -21.198343410330864 ] } },
{ "type": "Feature", "properties": { "codigo_municipio": "3508702", "nome_municipio": "Caconde", "area_km2": 468.214, "nome_regiao_imediata": "Campinas", "nome_rgi": "São José do Rio Pardo - Mococa" }, "geometry": { "type": "Point", "coordinates": [ -46.617038225157415, -21.539514461071178 ] } },
{ "type": "Feature", "properties": { "codigo_municipio": "3539509", "nome_municipio": "Pitangueiras", "area_km2": 430.638, "nome_regiao_imediata": "Ribeirão Preto", "nome_rgi": "Ribeirão Preto" }, "geometry": { "type": "Point", "coordinates": [ -48.249359467295037, -21.006221982020072 ] } },
{ "type": "Feature", "properties": { "codigo_municipio": "3528809", "nome_municipio": "Maracaí", "area_km2": 533.498, "nome_regiao_imediata": "Marília", "nome_rgi": "Assis" }, "geometry": { "type": "Point", "coordinates": [ -50.7454310976076, -22.652273453797026 ] } },
{ "type": "Feature", "properties": { "codigo_municipio": "3538204", "nome_municipio": "Pinhalzinho", "area_km2": 154.529, "nome_regiao_imediata": "Campinas", "nome_rgi": "Bragança Paulista" }, "geometry": { "type": "Point", "coordinates": [ -46.573426798084881, -22.77868788652771 ] } },
{ "type": "Feature", "properties": { "codigo_municipio": "3540853", "nome_municipio": "Pracinha", "area_km2": 63.054, "nome_regiao_imediata": "Presidente Prudente", "nome_rgi": "Adamantina - Lucélia" }, "geometry": { "type": "Point", "coordinates": [ -51.075197178825412, -21.837522890310545 ] } },
{ "type": "Feature", "properties": { "codigo_municipio": "3553203", "nome_municipio": "Taiúva", "area_km2": 132.459, "nome_regiao_imediata": "Ribeirão Preto", "nome_rgi": "Barretos" }, "geometry": { "type": "Point", "coordinates": [ -48.428249638470632, -21.132692045205467 ] } },
{ "type": "Feature", "properties": { "codigo_municipio": "3550803", "nome_municipio": "São Sebastião da Grama", "area_km2": 252.41, "nome_regiao_imediata": "Campinas", "nome_rgi": "São José do Rio Pardo - Mococa" }, "geometry": { "type": "Point", "coordinates": [ -46.752978034686294, -21.754050222574005 ] } },
{ "type": "Feature", "properties": { "codigo_municipio": "3503901", "nome_municipio": "Arujá", "area_km2": 96.167, "nome_regiao_imediata": "São Paulo", "nome_rgi": "São Paulo" }, "geometry": { "type": "Point", "coordinates": [ -46.319051020075868, -23.386018416558304 ] } },
{ "type": "Feature", "properties": { "codigo_municipio": "3513108", "nome_municipio": "Cravinhos", "area_km2": 311.423, "nome_regiao_imediata": "Ribeirão Preto", "nome_rgi": "Ribeirão Preto" }, "geometry": { "type": "Point", "coordinates": [ -47.744577427288966, -21.339654217896832 ] } },
{ "type": "Feature", "properties": { "codigo_municipio": "3502606", "nome_municipio": "Aparecida d'Oeste", "area_km2": 179.004, "nome_regiao_imediata": "São José do Rio Preto", "nome_rgi": "Jales" }, "geometry": { "type": "Point", "coordinates": [ -50.921977259459666, -20.478803390485268 ] } },
{ "type": "Feature", "properties": { "codigo_municipio": "3505708", "nome_municipio": "Barueri", "area_km2": 65.701, "nome_regiao_imediata": "São Paulo", "nome_rgi": "São Paulo" }, "geometry": { "type": "Point", "coordinates": [ -46.877249660459547, -23.505279159598491 ] } },
{ "type": "Feature", "properties": { "codigo_municipio": "3503950", "nome_municipio": "Aspásia", "area_km2": 69.373, "nome_regiao_imediata": "São José do Rio Preto", "nome_rgi": "Jales" }, "geometry": { "type": "Point", "coordinates": [ -50.728030366874222, -20.183558925735571 ] } },
{ "type": "Feature", "properties": { "codigo_municipio": "3507456", "nome_municipio": "Borebi", "area_km2": 347.989, "nome_regiao_imediata": "Bauru", "nome_rgi": "Bauru" }, "geometry": { "type": "Point", "coordinates": [ -48.992319782402582, -22.680667494276531 ] } },
{ "type": "Feature", "properties": { "codigo_municipio": "3509205", "nome_municipio": "Cajamar", "area_km2": 131.386, "nome_regiao_imediata": "São Paulo", "nome_rgi": "São Paulo" }, "geometry": { "type": "Point", "coordinates": [ -46.872034990109043, -23.351431717354604 ] } },
{ "type": "Feature", "properties": { "codigo_municipio": "3528858", "nome_municipio": "Marapoama", "area_km2": 111.267, "nome_regiao_imediata": "São José do Rio Preto", "nome_rgi": "Catanduva" }, "geometry": { "type": "Point", "coordinates": [ -49.137760258000156, -21.255510507027154 ] } },
{ "type": "Feature", "properties": { "codigo_municipio": "3534708", "nome_municipio": "Ourinhos", "area_km2": 295.818, "nome_regiao_imediata": "Marília", "nome_rgi": "Ourinhos" }, "geometry": { "type": "Point", "coordinates": [ -49.852433386916537, -22.95268901279265 ] } },
{ "type": "Feature", "properties": { "codigo_municipio": "3524709", "nome_municipio": "Jaguariúna", "area_km2": 141.391, "nome_regiao_imediata": "Campinas", "nome_rgi": "Campinas" }, "geometry": { "type": "Point", "coordinates": [ -47.012781528130496, -22.691980962316002 ] } },
{ "type": "Feature", "properties": { "codigo_municipio": "3516200", "nome_municipio": "Franca", "area_km2": 605.679, "nome_regiao_imediata": "Ribeirão Preto", "nome_rgi": "Franca" }, "geometry": { "type": "Point", "coordinates": [ -47.38111226316834, -20.555223642817172 ] } },
{ "type": "Feature", "properties": { "codigo_municipio": "3547809", "nome_municipio": "Santo André", "area_km2": 175.782, "nome_regiao_imediata": "São Paulo", "nome_rgi": "São Paulo" }, "geometry": { "type": "Point", "coordinates": [ -46.441586621763115, -23.727960299797566 ] } },
{ "type": "Feature", "properties": { "codigo_municipio": "3546504", "nome_municipio": "Santa Ernestina", "area_km2": 134.421, "nome_regiao_imediata": "Ribeirão Preto", "nome_rgi": "Ribeirão Preto" }, "geometry": { "type": "Point", "coordinates": [ -48.366818536017938, -21.452546208985559 ] } },
{ "type": "Feature", "properties": { "codigo_municipio": "3509254", "nome_municipio": "Cajati", "area_km2": 454.489, "nome_regiao_imediata": "Sorocaba", "nome_rgi": "Registro" }, "geometry": { "type": "Point", "coordinates": [ -48.195015227200784, -24.772041771884389 ] } },
{ "type": "Feature", "properties": { "codigo_municipio": "3511607", "nome_municipio": "Cesário Lange", "area_km2": 190.392, "nome_regiao_imediata": "Sorocaba", "nome_rgi": "Tatuí" }, "geometry": { "type": "Point", "coordinates": [ -47.903897847175386, -23.216511003611814 ] } },
{ "type": "Feature", "properties": { "codigo_municipio": "3548708", "nome_municipio": "São Bernardo do Campo", "area_km2": 409.532, "nome_regiao_imediata": "São Paulo", "nome_rgi": "São Paulo" }, "geometry": { "type": "Point", "coordinates": [ -46.550791800646493, -23.812988838766383 ] } },
{ "type": "Feature", "properties": { "codigo_municipio": "3518800", "nome_municipio": "Guarulhos", "area_km2": 318.675, "nome_regiao_imediata": "São Paulo", "nome_rgi": "São Paulo" }, "geometry": { "type": "Point", "coordinates": [ -46.454876009849094, -23.402693958034625 ] } },
{ "type": "Feature", "properties": { "codigo_municipio": "3551900", "nome_municipio": "Severínia", "area_km2": 140.46, "nome_regiao_imediata": "Ribeirão Preto", "nome_rgi": "Barretos" }, "geometry": { "type": "Point", "coordinates": [ -48.793763416651785, -20.793139648709911 ] } },
{ "type": "Feature", "properties": { "codigo_municipio": "3500907", "nome_municipio": "Altair", "area_km2": 313.007, "nome_regiao_imediata": "São José do Rio Preto", "nome_rgi": "São José do Rio Preto" }, "geometry": { "type": "Point", "coordinates": [ -49.093860814913334, -20.533337784910675 ] } },
{ "type": "Feature", "properties": { "codigo_municipio": "3541307", "nome_municipio": "Presidente Epitácio", "area_km2": 1260.281, "nome_regiao_imediata": "Presidente Prudente", "nome_rgi": "Presidente Epitácio-Presidente Venceslau" }, "geometry": { "type": "Point", "coordinates": [ -52.174917834232119, -21.910657929177326 ] } },
{ "type": "Feature", "properties": { "codigo_municipio": "3510302", "nome_municipio": "Capela do Alto", "area_km2": 169.89, "nome_regiao_imediata": "Sorocaba", "nome_rgi": "Sorocaba" }, "geometry": { "type": "Point", "coordinates": [ -47.730988690326832, -23.467387857399608 ] } },
{ "type": "Feature", "properties": { "codigo_municipio": "3534757", "nome_municipio": "Ouroeste", "area_km2": 288.648, "nome_regiao_imediata": "São José do Rio Preto", "nome_rgi": "Fernandópolis" }, "geometry": { "type": "Point", "coordinates": [ -50.40195888693421, -19.922475545860078 ] } },
{ "type": "Feature", "properties": { "codigo_municipio": "3530805", "nome_municipio": "Mogi Mirim", "area_km2": 497.708, "nome_regiao_imediata": "Campinas", "nome_rgi": "Mogi Guaçu" }, "geometry": { "type": "Point", "coordinates": [ -46.988383340066328, -22.45134762406725 ] } },
{ "type": "Feature", "properties": { "codigo_municipio": "3533403", "nome_municipio": "Nova Odessa", "area_km2": 73.788, "nome_regiao_imediata": "Campinas", "nome_rgi": "Campinas" }, "geometry": { "type": "Point", "coordinates": [ -47.285157570218409, -22.784110599037849 ] } },
{ "type": "Feature", "properties": { "codigo_municipio": "3540002", "nome_municipio": "Pompéia", "area_km2": 784.674, "nome_regiao_imediata": "Marília", "nome_rgi": "Marília" }, "geometry": { "type": "Point", "coordinates": [ -50.18772695357616, -22.029189487304006 ] } },
{ "type": "Feature", "properties": { "codigo_municipio": "3532108", "nome_municipio": "Murutinga do Sul", "area_km2": 250.873, "nome_regiao_imediata": "Araçatuba", "nome_rgi": "Andradina" }, "geometry": { "type": "Point", "coordinates": [ -51.301441833168141, -20.996762045297807 ] } },
{ "type": "Feature", "properties": { "codigo_municipio": "3523404", "nome_municipio": "Itatiba", "area_km2": 322.269, "nome_regiao_imediata": "Campinas", "nome_rgi": "Jundiaí" }, "geometry": { "type": "Point", "coordinates": [ -46.814306205464547, -23.006707755417747 ] } },
{ "type": "Feature", "properties": { "codigo_municipio": "3520806", "nome_municipio": "Inúbia Paulista", "area_km2": 87.119, "nome_regiao_imediata": "Presidente Prudente", "nome_rgi": "Adamantina - Lucélia" }, "geometry": { "type": "Point", "coordinates": [ -50.957417129339689, -21.739017422800664 ] } },
{ "type": "Feature", "properties": { "codigo_municipio": "3504404", "nome_municipio": "Avanhandava", "area_km2": 338.37, "nome_regiao_imediata": "Araçatuba", "nome_rgi": "Birigui - Penápolis" }, "geometry": { "type": "Point", "coordinates": [ -49.947352208592079, -21.460541235908185 ] } },
{ "type": "Feature", "properties": { "codigo_municipio": "3512704", "nome_municipio": "Corumbataí", "area_km2": 278.622, "nome_regiao_imediata": "Campinas", "nome_rgi": "Rio Claro" }, "geometry": { "type": "Point", "coordinates": [ -47.61107634988899, -22.236405084240619 ] } },
{ "type": "Feature", "properties": { "codigo_municipio": "3525607", "nome_municipio": "João Ramalho", "area_km2": 415.452, "nome_regiao_imediata": "Presidente Prudente", "nome_rgi": "Presidente Prudente" }, "geometry": { "type": "Point", "coordinates": [ -50.799136345186291, -22.277920287815078 ] } },
{ "type": "Feature", "properties": { "codigo_municipio": "3527504", "nome_municipio": "Lucianópolis", "area_km2": 189.536, "nome_regiao_imediata": "Bauru", "nome_rgi": "Bauru" }, "geometry": { "type": "Point", "coordinates": [ -49.550295163447146, -22.47335082675021 ] } },
{ "type": "Feature", "properties": { "codigo_municipio": "3534302", "nome_municipio": "Orlândia", "area_km2": 291.765, "nome_regiao_imediata": "Ribeirão Preto", "nome_rgi": "São Joaquim da Barra - Orlândia" }, "geometry": { "type": "Point", "coordinates": [ -47.905832630889293, -20.697873991546608 ] } },
{ "type": "Feature", "properties": { "codigo_municipio": "3556305", "nome_municipio": "Valparaíso", "area_km2": 857.661, "nome_regiao_imediata": "Araçatuba", "nome_rgi": "Araçatuba" }, "geometry": { "type": "Point", "coordinates": [ -50.923867982383157, -21.203103584233812 ] } },
{ "type": "Feature", "properties": { "codigo_municipio": "3517505", "nome_municipio": "Guapiaçu", "area_km2": 325.126, "nome_regiao_imediata": "São José do Rio Preto", "nome_rgi": "São José do Rio Preto" }, "geometry": { "type": "Point", "coordinates": [ -49.189913277796862, -20.742853462488547 ] } },
{ "type": "Feature", "properties": { "codigo_municipio": "3518859", "nome_municipio": "Guatapará", "area_km2": 413.567, "nome_regiao_imediata": "Ribeirão Preto", "nome_rgi": "Ribeirão Preto" }, "geometry": { "type": "Point", "coordinates": [ -47.979908195169287, -21.453292004284421 ] } },
{ "type": "Feature", "properties": { "codigo_municipio": "3526209", "nome_municipio": "Juquitiba", "area_km2": 522.169, "nome_regiao_imediata": "São Paulo", "nome_rgi": "São Paulo" }, "geometry": { "type": "Point", "coordinates": [ -47.024621888481079, -23.955194539955176 ] } },
{ "type": "Feature", "properties": { "codigo_municipio": "3529302", "nome_municipio": "Matão", "area_km2": 524.899, "nome_regiao_imediata": "Araraquara", "nome_rgi": "Araraquara" }, "geometry": { "type": "Point", "coordinates": [ -48.430118467621426, -21.610117990761175 ] } },
{ "type": "Feature", "properties": { "codigo_municipio": "3524303", "nome_municipio": "Jaboticabal", "area_km2": 706.602, "nome_regiao_imediata": "Ribeirão Preto", "nome_rgi": "Ribeirão Preto" }, "geometry": { "type": "Point", "coordinates": [ -48.287936280294126, -21.218335690426777 ] } },
{ "type": "Feature", "properties": { "codigo_municipio": "3519303", "nome_municipio": "Ibaté", "area_km2": 290.977, "nome_regiao_imediata": "Araraquara", "nome_rgi": "São Carlos" }, "geometry": { "type": "Point", "coordinates": [ -48.027285088854988, -21.950905200707627 ] } },
{ "type": "Feature", "properties": { "codigo_municipio": "3547403", "nome_municipio": "Santa Rita d'Oeste", "area_km2": 209.8, "nome_regiao_imediata": "São José do Rio Preto", "nome_rgi": "Santa Fé do Sul" }, "geometry": { "type": "Point", "coordinates": [ -50.812701537098306, -20.097152738531111 ] } },
{ "type": "Feature", "properties": { "codigo_municipio": "3546108", "nome_municipio": "Santa Clara d'Oeste", "area_km2": 183.458, "nome_regiao_imediata": "São José do Rio Preto", "nome_rgi": "Santa Fé do Sul" }, "geometry": { "type": "Point", "coordinates": [ -50.908435607296674, -20.066896320941307 ] } },
{ "type": "Feature", "properties": { "codigo_municipio": "3503109", "nome_municipio": "Arandu", "area_km2": 285.908, "nome_regiao_imediata": "Sorocaba", "nome_rgi": "Avaré" }, "geometry": { "type": "Point", "coordinates": [ -49.064033357633932, -23.177696539981831 ] } },
{ "type": "Feature", "properties": { "codigo_municipio": "3511201", "nome_municipio": "Catiguá", "area_km2": 148.393, "nome_regiao_imediata": "São José do Rio Preto", "nome_rgi": "Catanduva" }, "geometry": { "type": "Point", "coordinates": [ -49.052801140877605, -21.06284358036336 ] } },
{ "type": "Feature", "properties": { "codigo_municipio": "3550001", "nome_municipio": "São Luiz do Paraitinga", "area_km2": 617.315, "nome_regiao_imediata": "São José dos Campos", "nome_rgi": "Taubaté - Pindamonhangaba" }, "geometry": { "type": "Point", "coordinates": [ -45.253819210934608, -23.240106783525235 ] } },
{ "type": "Feature", "properties": { "codigo_municipio": "3503158", "nome_municipio": "Arapeí", "area_km2": 156.903, "nome_regiao_imediata": "São José dos Campos", "nome_rgi": "Cruzeiro" }, "geometry": { "type": "Point", "coordinates": [ -44.438589391645735, -22.672911262350695 ] } },
{ "type": "Feature", "properties": { "codigo_municipio": "3553708", "nome_municipio": "Taquaritinga", "area_km2": 594.335, "nome_regiao_imediata": "Araraquara", "nome_rgi": "Araraquara" }, "geometry": { "type": "Point", "coordinates": [ -48.53790145249576, -21.425585509885479 ] } },
{ "type": "Feature", "properties": { "codigo_municipio": "3533007", "nome_municipio": "Nova Granada", "area_km2": 531.796, "nome_regiao_imediata": "São José do Rio Preto", "nome_rgi": "São José do Rio Preto" }, "geometry": { "type": "Point", "coordinates": [ -49.331105474977633, -20.476001611894173 ] } },
{ "type": "Feature", "properties": { "codigo_municipio": "3523008", "nome_municipio": "Itapura", "area_km2": 301.653, "nome_regiao_imediata": "Araçatuba", "nome_rgi": "Andradina" }, "geometry": { "type": "Point", "coordinates": [ -51.440568052794738, -20.595074388214329 ] } },
{ "type": "Feature", "properties": { "codigo_municipio": "3514957", "nome_municipio": "Embaúba", "area_km2": 83.129, "nome_regiao_imediata": "São José do Rio Preto", "nome_rgi": "Catanduva" }, "geometry": { "type": "Point", "coordinates": [ -48.847540750343946, -20.952888461565124 ] } },
{ "type": "Feature", "properties": { "codigo_municipio": "3512308", "nome_municipio": "Conchas", "area_km2": 466.12, "nome_regiao_imediata": "Bauru", "nome_rgi": "Botucatu" }, "geometry": { "type": "Point", "coordinates": [ -48.047103904829513, -22.965633023587987 ] } },
{ "type": "Feature", "properties": { "codigo_municipio": "3543907", "nome_municipio": "Rio Claro", "area_km2": 498.422, "nome_regiao_imediata": "Campinas", "nome_rgi": "Rio Claro" }, "geometry": { "type": "Point", "coordinates": [ -47.579894385574647, -22.373917573959822 ] } },
{ "type": "Feature", "properties": { "codigo_municipio": "3557204", "nome_municipio": "Chavantes", "area_km2": 188.727, "nome_regiao_imediata": "Marília", "nome_rgi": "Ourinhos" }, "geometry": { "type": "Point", "coordinates": [ -49.726539119371644, -23.046333818939335 ] } },
{ "type": "Feature", "properties": { "codigo_municipio": "3506201", "nome_municipio": "Bento de Abreu", "area_km2": 301.687, "nome_regiao_imediata": "Araçatuba", "nome_rgi": "Araçatuba" }, "geometry": { "type": "Point", "coordinates": [ -50.86196145592276, -21.331755157098851 ] } },
{ "type": "Feature", "properties": { "codigo_municipio": "3542602", "nome_municipio": "Registro", "area_km2": 722.201, "nome_regiao_imediata": "Sorocaba", "nome_rgi": "Registro" }, "geometry": { "type": "Point", "coordinates": [ -47.820753143060394, -24.503989039562505 ] } },
{ "type": "Feature", "properties": { "codigo_municipio": "3545704", "nome_municipio": "Santa Albertina", "area_km2": 272.692, "nome_regiao_imediata": "São José do Rio Preto", "nome_rgi": "Jales" }, "geometry": { "type": "Point", "coordinates": [ -50.72770123666298, -20.01415855773033 ] } },
{ "type": "Feature", "properties": { "codigo_municipio": "3537800", "nome_municipio": "Piedade", "area_km2": 746.868, "nome_regiao_imediata": "Sorocaba", "nome_rgi": "Sorocaba" }, "geometry": { "type": "Point", "coordinates": [ -47.438142684126859, -23.787004256765101 ] } },
{ "type": "Feature", "properties": { "codigo_municipio": "3544400", "nome_municipio": "Rubiácea", "area_km2": 236.484, "nome_regiao_imediata": "Araçatuba", "nome_rgi": "Araçatuba" }, "geometry": { "type": "Point", "coordinates": [ -50.785797456121308, -21.360859504656254 ] } },
{ "type": "Feature", "properties": { "codigo_municipio": "3500550", "nome_municipio": "Águas de Santa Bárbara", "area_km2": 404.463, "nome_regiao_imediata": "Sorocaba", "nome_rgi": "Avaré" }, "geometry": { "type": "Point", "coordinates": [ -49.261037035437361, -22.857954836907648 ] } },
{ "type": "Feature", "properties": { "codigo_municipio": "3549201", "nome_municipio": "São João das Duas Pontes", "area_km2": 129.462, "nome_regiao_imediata": "São José do Rio Preto", "nome_rgi": "Fernandópolis" }, "geometry": { "type": "Point", "coordinates": [ -50.383462802994984, -20.408402422340448 ] } },
{ "type": "Feature", "properties": { "codigo_municipio": "3528007", "nome_municipio": "Macatuba", "area_km2": 224.514, "nome_regiao_imediata": "Bauru", "nome_rgi": "Bauru" }, "geometry": { "type": "Point", "coordinates": [ -48.719387126411931, -22.487128665781182 ] } },
{ "type": "Feature", "properties": { "codigo_municipio": "3508801", "nome_municipio": "Cafelândia", "area_km2": 920.28, "nome_regiao_imediata": "Bauru", "nome_rgi": "Lins" }, "geometry": { "type": "Point", "coordinates": [ -49.548684420789264, -21.731145814978547 ] } },
{ "type": "Feature", "properties": { "codigo_municipio": "3518008", "nome_municipio": "Guarani d'Oeste", "area_km2": 85.7, "nome_regiao_imediata": "São José do Rio Preto", "nome_rgi": "Fernandópolis" }, "geometry": { "type": "Point", "coordinates": [ -50.344608064099745, -20.066833607470549 ] } },
{ "type": "Feature", "properties": { "codigo_municipio": "3551108", "nome_municipio": "Sarapuí", "area_km2": 352.592, "nome_regiao_imediata": "Sorocaba", "nome_rgi": "Sorocaba" }, "geometry": { "type": "Point", "coordinates": [ -47.78577064358155, -23.664298188829509 ] } },
{ "type": "Feature", "properties": { "codigo_municipio": "3538709", "nome_municipio": "Piracicaba", "area_km2": 1378.069, "nome_regiao_imediata": "Campinas", "nome_rgi": "Piracicaba" }, "geometry": { "type": "Point", "coordinates": [ -47.784023889660176, -22.726464015947812 ] } },
{ "type": "Feature", "properties": { "codigo_municipio": "3531308", "nome_municipio": "Monte Alto", "area_km2": 346.95, "nome_regiao_imediata": "Ribeirão Preto", "nome_rgi": "Ribeirão Preto" }, "geometry": { "type": "Point", "coordinates": [ -48.533009219005137, -21.259314842362144 ] } },
{ "type": "Feature", "properties": { "codigo_municipio": "3521309", "nome_municipio": "Ipuã", "area_km2": 466.461, "nome_regiao_imediata": "Ribeirão Preto", "nome_rgi": "São Joaquim da Barra - Orlândia" }, "geometry": { "type": "Point", "coordinates": [ -48.066489714930313, -20.417482650544336 ] } },
{ "type": "Feature", "properties": { "codigo_municipio": "3530003", "nome_municipio": "Mira Estrela", "area_km2": 216.825, "nome_regiao_imediata": "São José do Rio Preto", "nome_rgi": "Fernandópolis" }, "geometry": { "type": "Point", "coordinates": [ -50.124301269245187, -19.951761726695011 ] } },
{ "type": "Feature", "properties": { "codigo_municipio": "3549250", "nome_municipio": "São João de Iracema", "area_km2": 178.396, "nome_regiao_imediata": "São José do Rio Preto", "nome_rgi": "Fernandópolis" }, "geometry": { "type": "Point", "coordinates": [ -50.356284539527344, -20.520795436978439 ] } },
{ "type": "Feature", "properties": { "codigo_municipio": "3552403", "nome_municipio": "Sumaré", "area_km2": 153.465, "nome_regiao_imediata": "Campinas", "nome_rgi": "Campinas" }, "geometry": { "type": "Point", "coordinates": [ -47.263000463220806, -22.841861319701533 ] } },
{ "type": "Feature", "properties": { "codigo_municipio": "3502705", "nome_municipio": "Apiaí", "area_km2": 974.322, "nome_regiao_imediata": "Sorocaba", "nome_rgi": "Itapeva" }, "geometry": { "type": "Point", "coordinates": [ -48.81735731705966, -24.4214703338988 ] } },
{ "type": "Feature", "properties": { "codigo_municipio": "3555505", "nome_municipio": "Ubirajara", "area_km2": 282.179, "nome_regiao_imediata": "Bauru", "nome_rgi": "Bauru" }, "geometry": { "type": "Point", "coordinates": [ -49.665895275227577, -22.544314616690972 ] } },
{ "type": "Feature", "properties": { "codigo_municipio": "3510807", "nome_municipio": "Casa Branca", "area_km2": 864.225, "nome_regiao_imediata": "Campinas", "nome_rgi": "São João da Boa Vista" }, "geometry": { "type": "Point", "coordinates": [ -47.088127158425934, -21.800547591919024 ] } },
{ "type": "Feature", "properties": { "codigo_municipio": "3520004", "nome_municipio": "Igaraçu do Tietê", "area_km2": 97.747, "nome_regiao_imediata": "Bauru", "nome_rgi": "Jaú" }, "geometry": { "type": "Point", "coordinates": [ -48.574550994179774, -22.541738188013134 ] } },
{ "type": "Feature", "properties": { "codigo_municipio": "3540903", "nome_municipio": "Pradópolis", "area_km2": 167.378, "nome_regiao_imediata": "Ribeirão Preto", "nome_rgi": "Ribeirão Preto" }, "geometry": { "type": "Point", "coordinates": [ -48.086057362479572, -21.344440861748041 ] } },
{ "type": "Feature", "properties": { "codigo_municipio": "3515400", "nome_municipio": "Fartura", "area_km2": 429.171, "nome_regiao_imediata": "Marília", "nome_rgi": "Piraju" }, "geometry": { "type": "Point", "coordinates": [ -49.519687018376608, -23.390174765528233 ] } },
{ "type": "Feature", "properties": { "codigo_municipio": "3507506", "nome_municipio": "Botucatu", "area_km2": 1482.642, "nome_regiao_imediata": "Bauru", "nome_rgi": "Botucatu" }, "geometry": { "type": "Point", "coordinates": [ -48.468321928994818, -22.863442195558434 ] } },
{ "type": "Feature", "properties": { "codigo_municipio": "3554201", "nome_municipio": "Tejupá", "area_km2": 296.189, "nome_regiao_imediata": "Marília", "nome_rgi": "Piraju" }, "geometry": { "type": "Point", "coordinates": [ -49.3065675146632, -23.342505708017722 ] } },
{ "type": "Feature", "properties": { "codigo_municipio": "3504909", "nome_municipio": "Bananal", "area_km2": 616.429, "nome_regiao_imediata": "São José dos Campos", "nome_rgi": "Cruzeiro" }, "geometry": { "type": "Point", "coordinates": [ -44.334519231903627, -22.733834116389044 ] } },
{ "type": "Feature", "properties": { "codigo_municipio": "3509304", "nome_municipio": "Cajobi", "area_km2": 176.929, "nome_regiao_imediata": "Ribeirão Preto", "nome_rgi": "Barretos" }, "geometry": { "type": "Point", "coordinates": [ -48.838765051233032, -20.873676046423839 ] } },
{ "type": "Feature", "properties": { "codigo_municipio": "3514106", "nome_municipio": "Dois Córregos", "area_km2": 632.972, "nome_regiao_imediata": "Bauru", "nome_rgi": "Jaú" }, "geometry": { "type": "Point", "coordinates": [ -48.340501127081112, -22.395907825706757 ] } },
{ "type": "Feature", "properties": { "codigo_municipio": "3537404", "nome_municipio": "Pereira Barreto", "area_km2": 974.247, "nome_regiao_imediata": "Araçatuba", "nome_rgi": "Andradina" }, "geometry": { "type": "Point", "coordinates": [ -51.106472846863788, -20.677747526571189 ] } },
{ "type": "Feature", "properties": { "codigo_municipio": "3536109", "nome_municipio": "Pardinho", "area_km2": 209.894, "nome_regiao_imediata": "Bauru", "nome_rgi": "Botucatu" }, "geometry": { "type": "Point", "coordinates": [ -48.401790482686778, -23.102209592845529 ] } },
{ "type": "Feature", "properties": { "codigo_municipio": "3526704", "nome_municipio": "Leme", "area_km2": 402.871, "nome_regiao_imediata": "Campinas", "nome_rgi": "Araras" }, "geometry": { "type": "Point", "coordinates": [ -47.337615205413393, -22.1721555716654 ] } },
{ "type": "Feature", "properties": { "codigo_municipio": "3516705", "nome_municipio": "Garça", "area_km2": 555.807, "nome_regiao_imediata": "Marília", "nome_rgi": "Marília" }, "geometry": { "type": "Point", "coordinates": [ -49.689635458577747, -22.231041998789969 ] } },
{ "type": "Feature", "properties": { "codigo_municipio": "3501004", "nome_municipio": "Altinópolis", "area_km2": 928.956, "nome_regiao_imediata": "Ribeirão Preto", "nome_rgi": "Ribeirão Preto" }, "geometry": { "type": "Point", "coordinates": [ -47.386248305113789, -21.018047253190506 ] } },
{ "type": "Feature", "properties": { "codigo_municipio": "3548807", "nome_municipio": "São Caetano do Sul", "area_km2": 15.331, "nome_regiao_imediata": "São Paulo", "nome_rgi": "São Paulo" }, "geometry": { "type": "Point", "coordinates": [ -46.566062623034462, -23.626140562974108 ] } },
{ "type": "Feature", "properties": { "codigo_municipio": "3550902", "nome_municipio": "São Simão", "area_km2": 617.252, "nome_regiao_imediata": "Ribeirão Preto", "nome_rgi": "Ribeirão Preto" }, "geometry": { "type": "Point", "coordinates": [ -47.568273160665058, -21.461521384861381 ] } },
{ "type": "Feature", "properties": { "codigo_municipio": "3503604", "nome_municipio": "Areiópolis", "area_km2": 85.907, "nome_regiao_imediata": "Bauru", "nome_rgi": "Botucatu" }, "geometry": { "type": "Point", "coordinates": [ -48.652845359330392, -22.631820225293378 ] } },
{ "type": "Feature", "properties": { "codigo_municipio": "3502309", "nome_municipio": "Anhembi", "area_km2": 736.557, "nome_regiao_imediata": "Bauru", "nome_rgi": "Botucatu" }, "geometry": { "type": "Point", "coordinates": [ -48.174731117996586, -22.800067361899604 ] } },
{ "type": "Feature", "properties": { "codigo_municipio": "3543105", "nome_municipio": "Ribeirão Corrente", "area_km2": 148.332, "nome_regiao_imediata": "Ribeirão Preto", "nome_rgi": "Franca" }, "geometry": { "type": "Point", "coordinates": [ -47.573325311342131, -20.448928460821513 ] } },
{ "type": "Feature", "properties": { "codigo_municipio": "3533908", "nome_municipio": "Olímpia", "area_km2": 802.555, "nome_regiao_imediata": "Ribeirão Preto", "nome_rgi": "Barretos" }, "geometry": { "type": "Point", "coordinates": [ -48.959613646160449, -20.70523943999477 ] } },
{ "type": "Feature", "properties": { "codigo_municipio": "3532603", "nome_municipio": "Nhandeara", "area_km2": 436.159, "nome_regiao_imediata": "São José do Rio Preto", "nome_rgi": "Votuporanga" }, "geometry": { "type": "Point", "coordinates": [ -50.046813058359064, -20.67309947437904 ] } },
{ "type": "Feature", "properties": { "codigo_municipio": "3535705", "nome_municipio": "Paraíso", "area_km2": 155.186, "nome_regiao_imediata": "São José do Rio Preto", "nome_rgi": "Catanduva" }, "geometry": { "type": "Point", "coordinates": [ -48.764662169523277, -21.019644875700401 ] } },
{ "type": "Feature", "properties": { "codigo_municipio": "3523909", "nome_municipio": "Itu", "area_km2": 640.719, "nome_regiao_imediata": "Sorocaba", "nome_rgi": "Sorocaba" }, "geometry": { "type": "Point", "coordinates": [ -47.284618835681918, -23.307144733455367 ] } },
{ "type": "Feature", "properties": { "codigo_municipio": "3522604", "nome_municipio": "Itapira", "area_km2": 518.416, "nome_regiao_imediata": "Campinas", "nome_rgi": "Mogi Guaçu" }, "geometry": { "type": "Point", "coordinates": [ -46.772102781901353, -22.431961855097491 ] } },
{ "type": "Feature", "properties": { "codigo_municipio": "3525706", "nome_municipio": "José Bonifácio", "area_km2": 860.2, "nome_regiao_imediata": "São José do Rio Preto", "nome_rgi": "São José do Rio Preto" }, "geometry": { "type": "Point", "coordinates": [ -49.779316037613974, -21.089368821098688 ] } },
{ "type": "Feature", "properties": { "codigo_municipio": "3534401", "nome_municipio": "Osasco", "area_km2": 64.954, "nome_regiao_imediata": "São Paulo", "nome_rgi": "São Paulo" }, "geometry": { "type": "Point", "coordinates": [ -46.789267377969026, -23.528749265952232 ] } },
{ "type": "Feature", "properties": { "codigo_municipio": "3539202", "nome_municipio": "Pirapozinho", "area_km2": 477.673, "nome_regiao_imediata": "Presidente Prudente", "nome_rgi": "Presidente Prudente" }, "geometry": { "type": "Point", "coordinates": [ -51.619799978400138, -22.479183386152272 ] } },
{ "type": "Feature", "properties": { "codigo_municipio": "3508009", "nome_municipio": "Buri", "area_km2": 1196.463, "nome_regiao_imediata": "Sorocaba", "nome_rgi": "Itapeva" }, "geometry": { "type": "Point", "coordinates": [ -48.575311319017814, -23.752029645195602 ] } },
{ "type": "Feature", "properties": { "codigo_municipio": "3556800", "nome_municipio": "Viradouro", "area_km2": 217.726, "nome_regiao_imediata": "Ribeirão Preto", "nome_rgi": "Barretos" }, "geometry": { "type": "Point", "coordinates": [ -48.309863646478576, -20.88438220547134 ] } },
{ "type": "Feature", "properties": { "codigo_municipio": "3529807", "nome_municipio": "Mineiros do Tietê", "area_km2": 213.242, "nome_regiao_imediata": "Bauru", "nome_rgi": "Jaú" }, "geometry": { "type": "Point", "coordinates": [ -48.433223387378199, -22.463261685715143 ] } },
{ "type": "Feature", "properties": { "codigo_municipio": "3524402", "nome_municipio": "Jacareí", "area_km2": 464.272, "nome_regiao_imediata": "São José dos Campos", "nome_rgi": "São José dos Campos" }, "geometry": { "type": "Point", "coordinates": [ -45.990505912926132, -23.298877464617256 ] } },
{ "type": "Feature", "properties": { "codigo_municipio": "3506706", "nome_municipio": "Boa Esperança do Sul", "area_km2": 690.748, "nome_regiao_imediata": "Araraquara", "nome_rgi": "Araraquara" }, "geometry": { "type": "Point", "coordinates": [ -48.463591987526819, -21.935011567457096 ] } },
{ "type": "Feature", "properties": { "codigo_municipio": "3519808", "nome_municipio": "Icém", "area_km2": 362.355, "nome_regiao_imediata": "São José do Rio Preto", "nome_rgi": "São José do Rio Preto" }, "geometry": { "type": "Point", "coordinates": [ -49.18529265912327, -20.36724432318271 ] } },
{ "type": "Feature", "properties": { "codigo_municipio": "3501905", "nome_municipio": "Amparo", "area_km2": 445.323, "nome_regiao_imediata": "Campinas", "nome_rgi": "Amparo" }, "geometry": { "type": "Point", "coordinates": [ -46.79872856370018, -22.699128789672308 ] } },
{ "type": "Feature", "properties": { "codigo_municipio": "3511300", "nome_municipio": "Cedral", "area_km2": 197.838, "nome_regiao_imediata": "São José do Rio Preto", "nome_rgi": "São José do Rio Preto" }, "geometry": { "type": "Point", "coordinates": [ -49.263905746448188, -20.913887288733637 ] } },
{ "type": "Feature", "properties": { "codigo_municipio": "3541406", "nome_municipio": "Presidente Prudente", "area_km2": 560.637, "nome_regiao_imediata": "Presidente Prudente", "nome_rgi": "Presidente Prudente" }, "geometry": { "type": "Point", "coordinates": [ -51.343125470218567, -21.993150382355534 ] } },
{ "type": "Feature", "properties": { "codigo_municipio": "3522653", "nome_municipio": "Itapirapuã Paulista", "area_km2": 406.478, "nome_regiao_imediata": "Sorocaba", "nome_rgi": "Itapeva" }, "geometry": { "type": "Point", "coordinates": [ -49.222934437697823, -24.56900305340092 ] } },
{ "type": "Feature", "properties": { "codigo_municipio": "3510005", "nome_municipio": "Cândido Mota", "area_km2": 595.811, "nome_regiao_imediata": "Marília", "nome_rgi": "Assis" }, "geometry": { "type": "Point", "coordinates": [ -50.421674749184149, -22.808684620694482 ] } },
{ "type": "Feature", "properties": { "codigo_municipio": "3553807", "nome_municipio": "Taquarituba", "area_km2": 448.515, "nome_regiao_imediata": "Sorocaba", "nome_rgi": "Avaré" }, "geometry": { "type": "Point", "coordinates": [ -49.234571897548555, -23.530185452764947 ] } },
{ "type": "Feature", "properties": { "codigo_municipio": "3500600", "nome_municipio": "Águas de São Pedro", "area_km2": 3.612, "nome_regiao_imediata": "Campinas", "nome_rgi": "Piracicaba" }, "geometry": { "type": "Point", "coordinates": [ -47.876089647243766, -22.598649693262153 ] } },
{ "type": "Feature", "properties": { "codigo_municipio": "3530904", "nome_municipio": "Mombuca", "area_km2": 133.698, "nome_regiao_imediata": "Campinas", "nome_rgi": "Piracicaba" }, "geometry": { "type": "Point", "coordinates": [ -47.602005744862154, -22.942719792489502 ] } },
{ "type": "Feature", "properties": { "codigo_municipio": "3505401", "nome_municipio": "Barra do Turvo", "area_km2": 1007.684, "nome_regiao_imediata": "Sorocaba", "nome_rgi": "Registro" }, "geometry": { "type": "Point", "coordinates": [ -48.426973684963428, -24.888742096141737 ] } },
{ "type": "Feature", "properties": { "codigo_municipio": "3540101", "nome_municipio": "Pongaí", "area_km2": 183.399, "nome_regiao_imediata": "Bauru", "nome_rgi": "Lins" }, "geometry": { "type": "Point", "coordinates": [ -49.358906998718211, -21.730188103628191 ] } },
{ "type": "Feature", "properties": { "codigo_municipio": "3520905", "nome_municipio": "Ipaussu", "area_km2": 209.554, "nome_regiao_imediata": "Marília", "nome_rgi": "Ourinhos" }, "geometry": { "type": "Point", "coordinates": [ -49.608122932976151, -23.065133755309553 ] } },
{ "type": "Feature", "properties": { "codigo_municipio": "3527207", "nome_municipio": "Lorena", "area_km2": 414.16, "nome_regiao_imediata": "São José dos Campos", "nome_rgi": "Guaratinguetá" }, "geometry": { "type": "Point", "coordinates": [ -45.059987607365876, -22.79397296981675 ] } },
{ "type": "Feature", "properties": { "codigo_municipio": "3542701", "nome_municipio": "Restinga", "area_km2": 245.746, "nome_regiao_imediata": "Ribeirão Preto", "nome_rgi": "Franca" }, "geometry": { "type": "Point", "coordinates": [ -47.505927930348939, -20.648233922677896 ] } },
{ "type": "Feature", "properties": { "codigo_municipio": "3517208", "nome_municipio": "Guaiçara", "area_km2": 277.154, "nome_regiao_imediata": "Bauru", "nome_rgi": "Lins" }, "geometry": { "type": "Point", "coordinates": [ -49.762750750849463, -21.569502701671201 ] } },
{ "type": "Feature", "properties": { "codigo_municipio": "3547502", "nome_municipio": "Santa Rita do Passa Quatro", "area_km2": 754.141, "nome_regiao_imediata": "Araraquara", "nome_rgi": "São Carlos" }, "geometry": { "type": "Point", "coordinates": [ -47.507925680717847, -21.682499932462349 ] } },
{ "type": "Feature", "properties": { "codigo_municipio": "3546207", "nome_municipio": "Santa Cruz da Conceição", "area_km2": 150.13, "nome_regiao_imediata": "Campinas", "nome_rgi": "Araras" }, "geometry": { "type": "Point", "coordinates": [ -47.485591920993826, -22.121339038431827 ] } },
{ "type": "Feature", "properties": { "codigo_municipio": "3549300", "nome_municipio": "São João do Pau d'Alho", "area_km2": 117.665, "nome_regiao_imediata": "Presidente Prudente", "nome_rgi": "Dracena" }, "geometry": { "type": "Point", "coordinates": [ -51.673044252825242, -21.22344973285729 ] } },
{ "type": "Feature", "properties": { "codigo_municipio": "3528502", "nome_municipio": "Mairiporã", "area_km2": 320.697, "nome_regiao_imediata": "São Paulo", "nome_rgi": "São Paulo" }, "geometry": { "type": "Point", "coordinates": [ -46.561274737513479, -23.317269299134946 ] } },
{ "type": "Feature", "properties": { "codigo_municipio": "3538808", "nome_municipio": "Piraju", "area_km2": 504.591, "nome_regiao_imediata": "Marília", "nome_rgi": "Piraju" }, "geometry": { "type": "Point", "coordinates": [ -49.36607801946451, -23.186920930260907 ] } },
{ "type": "Feature", "properties": { "codigo_municipio": "3548005", "nome_municipio": "Santo Antônio de Posse", "area_km2": 154.133, "nome_regiao_imediata": "Campinas", "nome_rgi": "Campinas" }, "geometry": { "type": "Point", "coordinates": [ -46.949915389636963, -22.603277285181026 ] } },
{ "type": "Feature", "properties": { "codigo_municipio": "3518503", "nome_municipio": "Guareí", "area_km2": 567.884, "nome_regiao_imediata": "Sorocaba", "nome_rgi": "Itapetininga" }, "geometry": { "type": "Point", "coordinates": [ -48.219118660879317, -23.370486793690105 ] } },
{ "type": "Feature", "properties": { "codigo_municipio": "3550100", "nome_municipio": "São Manuel", "area_km2": 650.734, "nome_regiao_imediata": "Bauru", "nome_rgi": "Botucatu" }, "geometry": { "type": "Point", "coordinates": [ -48.540426678952478, -22.682259998085989 ] } },
{ "type": "Feature", "properties": { "codigo_municipio": "3533106", "nome_municipio": "Nova Guataporanga", "area_km2": 34.158, "nome_regiao_imediata": "Presidente Prudente", "nome_rgi": "Dracena" }, "geometry": { "type": "Point", "coordinates": [ -51.645447493433188, -21.322363559747497 ] } },
{ "type": "Feature", "properties": { "codigo_municipio": "3553856", "nome_municipio": "Taquarivaí", "area_km2": 231.792, "nome_regiao_imediata": "Sorocaba", "nome_rgi": "Itapeva" }, "geometry": { "type": "Point", "coordinates": [ -48.687934563929716, -23.943302761204396 ] } },
{ "type": "Feature", "properties": { "codigo_municipio": "3523107", "nome_municipio": "Itaquaquecetuba", "area_km2": 82.622, "nome_regiao_imediata": "São Paulo", "nome_rgi": "São Paulo" }, "geometry": { "type": "Point", "coordinates": [ -46.333879932460988, -23.461463686452323 ] } },
{ "type": "Feature", "properties": { "codigo_municipio": "3552502", "nome_municipio": "Suzano", "area_km2": 206.236, "nome_regiao_imediata": "São Paulo", "nome_rgi": "São Paulo" }, "geometry": { "type": "Point", "coordinates": [ -46.310448402676364, -23.608388043061684 ] } },
{ "type": "Feature", "properties": { "codigo_municipio": "3513702", "nome_municipio": "Descalvado", "area_km2": 753.706, "nome_regiao_imediata": "Araraquara", "nome_rgi": "São Carlos" }, "geometry": { "type": "Point", "coordinates": [ -47.654599423400818, -21.881214077393601 ] } },
{ "type": "Feature", "properties": { "codigo_municipio": "3512407", "nome_municipio": "Cordeirópolis", "area_km2": 137.579, "nome_regiao_imediata": "Campinas", "nome_rgi": "Limeira" }, "geometry": { "type": "Point", "coordinates": [ -47.414673486153688, -22.479552673858763 ] } },
{ "type": "Feature", "properties": { "codigo_municipio": "3546256", "nome_municipio": "Santa Cruz da Esperança", "area_km2": 148.062, "nome_regiao_imediata": "Ribeirão Preto", "nome_rgi": "Ribeirão Preto" }, "geometry": { "type": "Point", "coordinates": [ -47.439605255493369, -21.274844488725684 ] } },
{ "type": "Feature", "properties": { "codigo_municipio": "3515509", "nome_municipio": "Fernandópolis", "area_km2": 549.797, "nome_regiao_imediata": "São José do Rio Preto", "nome_rgi": "Fernandópolis" }, "geometry": { "type": "Point", "coordinates": [ -50.283019063564034, -20.271773836304643 ] } },
{ "type": "Feature", "properties": { "codigo_municipio": "3504107", "nome_municipio": "Atibaia", "area_km2": 478.521, "nome_regiao_imediata": "Campinas", "nome_rgi": "Bragança Paulista" }, "geometry": { "type": "Point", "coordinates": [ -46.586787411797644, -23.123261991951374 ] } },
{ "type": "Feature", "properties": { "codigo_municipio": "3557303", "nome_municipio": "Estiva Gerbi", "area_km2": 74.144, "nome_regiao_imediata": "Campinas", "nome_rgi": "Mogi Guaçu" }, "geometry": { "type": "Point", "coordinates": [ -46.943078332636127, -22.236073710355338 ] } },
{ "type": "Feature", "properties": { "codigo_municipio": "3527256", "nome_municipio": "Lourdes", "area_km2": 113.94, "nome_regiao_imediata": "Araçatuba", "nome_rgi": "Birigui - Penápolis" }, "geometry": { "type": "Point", "coordinates": [ -50.234035445569369, -20.949148494514699 ] } },
{ "type": "Feature", "properties": { "codigo_municipio": "3548054", "nome_municipio": "Santo Antônio do Aracanguá", "area_km2": 1308.432, "nome_regiao_imediata": "Araçatuba", "nome_rgi": "Araçatuba" }, "geometry": { "type": "Point", "coordinates": [ -50.554322442859529, -20.873016699818521 ] } },
{ "type": "Feature", "properties": { "codigo_municipio": "3529005", "nome_municipio": "Marília", "area_km2": 1170.515, "nome_regiao_imediata": "Marília", "nome_rgi": "Marília" }, "geometry": { "type": "Point", "coordinates": [ -49.983092531917663, -22.177793381854851 ] } },
{ "type": "Feature", "properties": { "codigo_municipio": "3556008", "nome_municipio": "Urupês", "area_km2": 323.916, "nome_regiao_imediata": "São José do Rio Preto", "nome_rgi": "São José do Rio Preto" }, "geometry": { "type": "Point", "coordinates": [ -49.265173216355514, -21.205203387041788 ] } },
{ "type": "Feature", "properties": { "codigo_municipio": "3545803", "nome_municipio": "Santa Bárbara d'Oeste", "area_km2": 271.03, "nome_regiao_imediata": "Campinas", "nome_rgi": "Campinas" }, "geometry": { "type": "Point", "coordinates": [ -47.428074279901757, -22.800629176375249 ] } },
{ "type": "Feature", "properties": { "codigo_municipio": "3514205", "nome_municipio": "Dolcinópolis", "area_km2": 77.939, "nome_regiao_imediata": "São José do Rio Preto", "nome_rgi": "Jales" }, "geometry": { "type": "Point", "coordinates": [ -50.528284732027544, -20.117241491057968 ] } },
{ "type": "Feature", "properties": { "codigo_municipio": "3544509", "nome_municipio": "Rubinéia", "area_km2": 242.877, "nome_regiao_imediata": "São José do Rio Preto", "nome_rgi": "Santa Fé do Sul" }, "geometry": { "type": "Point", "coordinates": [ -51.018316473684287, -20.249727750643718 ] } },
{ "type": "Feature", "properties": { "codigo_municipio": "3519006", "nome_municipio": "Herculândia", "area_km2": 364.252, "nome_regiao_imediata": "Marília", "nome_rgi": "Tupã" }, "geometry": { "type": "Point", "coordinates": [ -50.373126672992726, -21.962321417563349 ] } },
{ "type": "Feature", "properties": { "codigo_municipio": "3509809", "nome_municipio": "Campos Novos Paulista", "area_km2": 484.199, "nome_regiao_imediata": "Marília", "nome_rgi": "Marília" }, "geometry": { "type": "Point", "coordinates": [ -50.010281929606094, -22.610867496448925 ] } },
{ "type": "Feature", "properties": { "codigo_municipio": "3551207", "nome_municipio": "Sarutaiá", "area_km2": 141.608, "nome_regiao_imediata": "Marília", "nome_rgi": "Piraju" }, "geometry": { "type": "Point", "coordinates": [ -49.481747958106077, -23.257509166976376 ] } },
{ "type": "Feature", "properties": { "codigo_municipio": "3519071", "nome_municipio": "Hortolândia", "area_km2": 62.416, "nome_regiao_imediata": "Campinas", "nome_rgi": "Campinas" }, "geometry": { "type": "Point", "coordinates": [ -47.207720946741489, -22.878426659311526 ] } },
{ "type": "Feature", "properties": { "codigo_municipio": "3552551", "nome_municipio": "Suzanápolis", "area_km2": 330.587, "nome_regiao_imediata": "São José do Rio Preto", "nome_rgi": "Jales" }, "geometry": { "type": "Point", "coordinates": [ -51.075621201209906, -20.4729175100085 ] } },
{ "type": "Feature", "properties": { "codigo_municipio": "3501103", "nome_municipio": "Alto Alegre", "area_km2": 318.574, "nome_regiao_imediata": "Araçatuba", "nome_rgi": "Birigui - Penápolis" }, "geometry": { "type": "Point", "coordinates": [ -50.192116773113561, -21.612539783313004 ] } },
{ "type": "Feature", "properties": { "codigo_municipio": "3531407", "nome_municipio": "Monte Aprazível", "area_km2": 495.559, "nome_regiao_imediata": "São José do Rio Preto", "nome_rgi": "São José do Rio Preto" }, "geometry": { "type": "Point", "coordinates": [ -49.765840838106527, -20.737474368058241 ] } },
{ "type": "Feature", "properties": { "codigo_municipio": "3519055", "nome_municipio": "Holambra", "area_km2": 65.577, "nome_regiao_imediata": "Campinas", "nome_rgi": "Campinas" }, "geometry": { "type": "Point", "coordinates": [ -47.06503119196401, -22.63029617509531 ] } },
{ "type": "Feature", "properties": { "codigo_municipio": "3521408", "nome_municipio": "Iracemápolis", "area_km2": 115.118, "nome_regiao_imediata": "Campinas", "nome_rgi": "Limeira" }, "geometry": { "type": "Point", "coordinates": [ -47.524229418927881, -22.593690849545389 ] } },
{ "type": "Feature", "properties": { "codigo_municipio": "3530102", "nome_municipio": "Mirandópolis", "area_km2": 917.694, "nome_regiao_imediata": "Araçatuba", "nome_rgi": "Andradina" }, "geometry": { "type": "Point", "coordinates": [ -51.130526886521373, -21.081071239584485 ] } },
{ "type": "Feature", "properties": { "codigo_municipio": "3555604", "nome_municipio": "Uchoa", "area_km2": 252.434, "nome_regiao_imediata": "São José do Rio Preto", "nome_rgi": "São José do Rio Preto" }, "geometry": { "type": "Point", "coordinates": [ -49.157706427630323, -20.936941234496572 ] } },
{ "type": "Feature", "properties": { "codigo_municipio": "3510906", "nome_municipio": "Cássia dos Coqueiros", "area_km2": 191.683, "nome_regiao_imediata": "Ribeirão Preto", "nome_rgi": "Ribeirão Preto" }, "geometry": { "type": "Point", "coordinates": [ -47.144090736501219, -21.263279011655744 ] } },
{ "type": "Feature", "properties": { "codigo_municipio": "3520103", "nome_municipio": "Igarapava", "area_km2": 468.355, "nome_regiao_imediata": "Ribeirão Preto", "nome_rgi": "Ituverava" }, "geometry": { "type": "Point", "coordinates": [ -47.682456658646593, -20.063678339572423 ] } },
{ "type": "Feature", "properties": { "codigo_municipio": "3543204", "nome_municipio": "Ribeirão do Sul", "area_km2": 203.208, "nome_regiao_imediata": "Marília", "nome_rgi": "Ourinhos" }, "geometry": { "type": "Point", "coordinates": [ -49.922650316039707, -22.751662300267849 ] } },
{ "type": "Feature", "properties": { "codigo_municipio": "3532702", "nome_municipio": "Nipoã", "area_km2": 137.609, "nome_regiao_imediata": "São José do Rio Preto", "nome_rgi": "São José do Rio Preto" }, "geometry": { "type": "Point", "coordinates": [ -49.778243894730345, -20.891605728561785 ] } },
{ "type": "Feature", "properties": { "codigo_municipio": "3554300", "nome_municipio": "Teodoro Sampaio", "area_km2": 1555.803, "nome_regiao_imediata": "Presidente Prudente", "nome_rgi": "Presidente Prudente" }, "geometry": { "type": "Point", "coordinates": [ -52.374035100995357, -22.416606906732355 ] } },
{ "type": "Feature", "properties": { "codigo_municipio": "3540606", "nome_municipio": "Porto Feliz", "area_km2": 556.706, "nome_regiao_imediata": "Sorocaba", "nome_rgi": "Sorocaba" }, "geometry": { "type": "Point", "coordinates": [ -47.516916302023169, -23.230333534795903 ] } },
{ "type": "Feature", "properties": { "codigo_municipio": "3507209", "nome_municipio": "Borá", "area_km2": 118.951, "nome_regiao_imediata": "Marília", "nome_rgi": "Assis" }, "geometry": { "type": "Point", "coordinates": [ -50.50212705702765, -22.244216994185525 ] } },
{ "type": "Feature", "properties": { "codigo_municipio": "3522703", "nome_municipio": "Itápolis", "area_km2": 996.747, "nome_regiao_imediata": "Araraquara", "nome_rgi": "Araraquara" }, "geometry": { "type": "Point", "coordinates": [ -48.815473991643067, -21.548104115607735 ] } },
{ "type": "Feature", "properties": { "codigo_municipio": "3537503", "nome_municipio": "Pereiras", "area_km2": 223.136, "nome_regiao_imediata": "Sorocaba", "nome_rgi": "Tatuí" }, "geometry": { "type": "Point", "coordinates": [ -47.97882631403138, -23.120479490500259 ] } },
{ "type": "Feature", "properties": { "codigo_municipio": "3536208", "nome_municipio": "Pariquera-Açu", "area_km2": 359.414, "nome_regiao_imediata": "Sorocaba", "nome_rgi": "Registro" }, "geometry": { "type": "Point", "coordinates": [ -47.850095834941385, -24.678263881729343 ] } },
{ "type": "Feature", "properties": { "codigo_municipio": "3539301", "nome_municipio": "Pirassununga", "area_km2": 727.118, "nome_regiao_imediata": "Araraquara", "nome_rgi": "São Carlos" }, "geometry": { "type": "Point", "coordinates": [ -47.38987721987062, -21.995922807378111 ] } },
{ "type": "Feature", "properties": { "codigo_municipio": "3543238", "nome_municipio": "Ribeirão dos Índios", "area_km2": 196.446, "nome_regiao_imediata": "Presidente Prudente", "nome_rgi": "Presidente Prudente" }, "geometry": { "type": "Point", "coordinates": [ -51.583278007224223, -21.78426935935893 ] } },
{ "type": "Feature", "properties": { "codigo_municipio": "3556909", "nome_municipio": "Vista Alegre do Alto", "area_km2": 95.429, "nome_regiao_imediata": "São José do Rio Preto", "nome_rgi": "Catanduva" }, "geometry": { "type": "Point", "coordinates": [ -48.649421176979992, -21.176698003412103 ] } },
{ "type": "Feature", "properties": { "codigo_municipio": "3544103", "nome_municipio": "Rio Grande da Serra", "area_km2": 36.341, "nome_regiao_imediata": "São Paulo", "nome_rgi": "São Paulo" }, "geometry": { "type": "Point", "coordinates": [ -46.379456918814569, -23.737858458194243 ] } },
{ "type": "Feature", "properties": { "codigo_municipio": "3526803", "nome_municipio": "Lençóis Paulista", "area_km2": 809.541, "nome_regiao_imediata": "Bauru", "nome_rgi": "Bauru" }, "geometry": { "type": "Point", "coordinates": [ -48.825034148153797, -22.676110705692523 ] } },
{ "type": "Feature", "properties": { "codigo_municipio": "3529906", "nome_municipio": "Miracatu", "area_km2": 1001.484, "nome_regiao_imediata": "Sorocaba", "nome_rgi": "Registro" }, "geometry": { "type": "Point", "coordinates": [ -47.394694493317068, -24.195075204462913 ] } },
{ "type": "Feature", "properties": { "codigo_municipio": "3508504", "nome_municipio": "Caçapava", "area_km2": 368.99, "nome_regiao_imediata": "São José dos Campos", "nome_rgi": "São José dos Campos" }, "geometry": { "type": "Point", "coordinates": [ -45.713307375480554, -23.103727576357517 ] } },
{ "type": "Feature", "properties": { "codigo_municipio": "3516804", "nome_municipio": "Gastão Vidigal", "area_km2": 180.569, "nome_regiao_imediata": "Araçatuba", "nome_rgi": "Araçatuba" }, "geometry": { "type": "Point", "coordinates": [ -50.202782893779251, -20.804286575127378 ] } },
{ "type": "Feature", "properties": { "codigo_municipio": "3519907", "nome_municipio": "Iepê", "area_km2": 594.974, "nome_regiao_imediata": "Presidente Prudente", "nome_rgi": "Presidente Prudente" }, "geometry": { "type": "Point", "coordinates": [ -51.057192027361296, -22.648628964866827 ] } },
{ "type": "Feature", "properties": { "codigo_municipio": "3501152", "nome_municipio": "Alumínio", "area_km2": 83.619, "nome_regiao_imediata": "Sorocaba", "nome_rgi": "Sorocaba" }, "geometry": { "type": "Point", "coordinates": [ -47.28124763233842, -23.533000388576102 ] } },
{ "type": "Feature", "properties": { "codigo_municipio": "3548906", "nome_municipio": "São Carlos", "area_km2": 1136.907, "nome_regiao_imediata": "Araraquara", "nome_rgi": "São Carlos" }, "geometry": { "type": "Point", "coordinates": [ -47.867177660814548, -21.918886771042132 ] } },
{ "type": "Feature", "properties": { "codigo_municipio": "3553005", "nome_municipio": "Taguaí", "area_km2": 145.332, "nome_regiao_imediata": "Sorocaba", "nome_rgi": "Avaré" }, "geometry": { "type": "Point", "coordinates": [ -49.39738014604135, -23.47446836621566 ] } },
{ "type": "Feature", "properties": { "codigo_municipio": "3521002", "nome_municipio": "Iperó", "area_km2": 170.289, "nome_regiao_imediata": "Sorocaba", "nome_rgi": "Sorocaba" }, "geometry": { "type": "Point", "coordinates": [ -47.629105877551474, -23.404481461622375 ] } },
{ "type": "Feature", "properties": { "codigo_municipio": "3550605", "nome_municipio": "São Roque", "area_km2": 306.908, "nome_regiao_imediata": "Sorocaba", "nome_rgi": "Sorocaba" }, "geometry": { "type": "Point", "coordinates": [ -47.109559369867995, -23.548974549379977 ] } },
{ "type": "Feature", "properties": { "codigo_municipio": "3503703", "nome_municipio": "Ariranha", "area_km2": 132.624, "nome_regiao_imediata": "São José do Rio Preto", "nome_rgi": "Catanduva" }, "geometry": { "type": "Point", "coordinates": [ -48.779212611261435, -21.185665399725785 ] } },
{ "type": "Feature", "properties": { "codigo_municipio": "3502408", "nome_municipio": "Anhumas", "area_km2": 320.84, "nome_regiao_imediata": "Presidente Prudente", "nome_rgi": "Presidente Prudente" }, "geometry": { "type": "Point", "coordinates": [ -51.427779444538579, -22.362024282318536 ] } },
{ "type": "Feature", "properties": { "codigo_municipio": "3556958", "nome_municipio": "Vitória Brasil", "area_km2": 49.832, "nome_regiao_imediata": "São José do Rio Preto", "nome_rgi": "Jales" }, "geometry": { "type": "Point", "coordinates": [ -50.48548746398663, -20.198409119376198 ] } },
{ "type": "Feature", "properties": { "codigo_municipio": "3536257", "nome_municipio": "Parisi", "area_km2": 84.737, "nome_regiao_imediata": "São José do Rio Preto", "nome_rgi": "Votuporanga" }, "geometry": { "type": "Point", "coordinates": [ -50.037380320197919, -20.271576958572535 ] } },
{ "type": "Feature", "properties": { "codigo_municipio": "3505500", "nome_municipio": "Barretos", "area_km2": 1566.161, "nome_regiao_imediata": "Ribeirão Preto", "nome_rgi": "Barretos" }, "geometry": { "type": "Point", "coordinates": [ -48.651949486967446, -20.514164964982818 ] } },
{ "type": "Feature", "properties": { "codigo_municipio": "3541901", "nome_municipio": "Queluz", "area_km2": 249.399, "nome_regiao_imediata": "São José dos Campos", "nome_rgi": "Cruzeiro" }, "geometry": { "type": "Point", "coordinates": [ -44.785277401212099, -22.504278291623855 ] } },
{ "type": "Feature", "properties": { "codigo_municipio": "3535804", "nome_municipio": "Paranapanema", "area_km2": 1018.724, "nome_regiao_imediata": "Sorocaba", "nome_rgi": "Avaré" }, "geometry": { "type": "Point", "coordinates": [ -48.795209188979328, -23.43848235543118 ] } },
{ "type": "Feature", "properties": { "codigo_municipio": "3516853", "nome_municipio": "Gavião Peixoto", "area_km2": 243.766, "nome_regiao_imediata": "Araraquara", "nome_rgi": "Araraquara" }, "geometry": { "type": "Point", "coordinates": [ -48.447930385095667, -21.791603675244229 ] } },
{ "type": "Feature", "properties": { "codigo_municipio": "3509007", "nome_municipio": "Caieiras", "area_km2": 97.642, "nome_regiao_imediata": "São Paulo", "nome_rgi": "São Paulo" }, "geometry": { "type": "Point", "coordinates": [ -46.745226502539921, -23.375931808575579 ] } },
{ "type": "Feature", "properties": { "codigo_municipio": "3525805", "nome_municipio": "Júlio Mesquita", "area_km2": 128.183, "nome_regiao_imediata": "Marília", "nome_rgi": "Marília" }, "geometry": { "type": "Point", "coordinates": [ -49.793353753680798, -21.972949566511133 ] } },
{ "type": "Feature", "properties": { "codigo_municipio": "3534500", "nome_municipio": "Oscar Bressane", "area_km2": 222.13, "nome_regiao_imediata": "Marília", "nome_rgi": "Marília" }, "geometry": { "type": "Point", "coordinates": [ -50.257364899945038, -22.295353163292532 ] } },
{ "type": "Feature", "properties": { "codigo_municipio": "3516002", "nome_municipio": "Flórida Paulista", "area_km2": 524.138, "nome_regiao_imediata": "Presidente Prudente", "nome_rgi": "Adamantina - Lucélia" }, "geometry": { "type": "Point", "coordinates": [ -51.170653194971749, -21.539962135168992 ] } },
{ "type": "Feature", "properties": { "codigo_municipio": "3506805", "nome_municipio": "Bocaina", "area_km2": 363.926, "nome_regiao_imediata": "Bauru", "nome_rgi": "Jaú" }, "geometry": { "type": "Point", "coordinates": [ -48.529050876986361, -22.105430307066303 ] } },
{ "type": "Feature", "properties": { "codigo_municipio": "3547601", "nome_municipio": "Santa Rosa de Viterbo", "area_km2": 288.576, "nome_regiao_imediata": "Ribeirão Preto", "nome_rgi": "Ribeirão Preto" }, "geometry": { "type": "Point", "coordinates": [ -47.366217426150328, -21.503776379090397 ] } },
{ "type": "Feature", "properties": { "codigo_municipio": "3538006", "nome_municipio": "Pindamonhangaba", "area_km2": 731.355, "nome_regiao_imediata": "São José dos Campos", "nome_rgi": "Taubaté - Pindamonhangaba" }, "geometry": { "type": "Point", "coordinates": [ -45.459259590825212, -22.880018909475556 ] } },
{ "type": "Feature", "properties": { "codigo_municipio": "3528601", "nome_municipio": "Manduri", "area_km2": 229.046, "nome_regiao_imediata": "Sorocaba", "nome_rgi": "Avaré" }, "geometry": { "type": "Point", "coordinates": [ -49.303644961540563, -23.046999268780453 ] } },
{ "type": "Feature", "properties": { "codigo_municipio": "3551702", "nome_municipio": "Sertãozinho", "area_km2": 403.089, "nome_regiao_imediata": "Ribeirão Preto", "nome_rgi": "Ribeirão Preto" }, "geometry": { "type": "Point", "coordinates": [ -48.008899909758028, -21.122917488724973 ] } },
{ "type": "Feature", "properties": { "codigo_municipio": "3511409", "nome_municipio": "Cerqueira César", "area_km2": 511.621, "nome_regiao_imediata": "Sorocaba", "nome_rgi": "Avaré" }, "geometry": { "type": "Point", "coordinates": [ -49.143820308244671, -23.059341991088395 ] } },
{ "type": "Feature", "properties": { "codigo_municipio": "3518602", "nome_municipio": "Guariba", "area_km2": 270.289, "nome_regiao_imediata": "Ribeirão Preto", "nome_rgi": "Ribeirão Preto" }, "geometry": { "type": "Point", "coordinates": [ -48.226557904491621, -21.395944095350742 ] } },
{ "type": "Feature", "properties": { "codigo_municipio": "3549805", "nome_municipio": "São José do Rio Preto", "area_km2": 431.944, "nome_regiao_imediata": "São José do Rio Preto", "nome_rgi": "São José do Rio Preto" }, "geometry": { "type": "Point", "coordinates": [ -49.358106499846855, -20.79723367373694 ] } },
{ "type": "Feature", "properties": { "codigo_municipio": "3548500", "nome_municipio": "Santos", "area_km2": 281.033, "nome_regiao_imediata": "São Paulo", "nome_rgi": "Santos" }, "geometry": { "type": "Point", "coordinates": [ -46.291529186879373, -23.869034979638869 ] } },
{ "type": "Feature", "properties": { "codigo_municipio": "3500709", "nome_municipio": "Agudos", "area_km2": 966.708, "nome_regiao_imediata": "Bauru", "nome_rgi": "Bauru" }, "geometry": { "type": "Point", "coordinates": [ -49.108767539784523, -22.57193420521978 ] } },
{ "type": "Feature", "properties": { "codigo_municipio": "3531902", "nome_municipio": "Morro Agudo", "area_km2": 1388.127, "nome_regiao_imediata": "Ribeirão Preto", "nome_rgi": "São Joaquim da Barra - Orlândia" }, "geometry": { "type": "Point", "coordinates": [ -48.153326798008308, -20.688723869795012 ] } },
{ "type": "Feature", "properties": { "codigo_municipio": "3541109", "nome_municipio": "Presidente Alves", "area_km2": 286.642, "nome_regiao_imediata": "Bauru", "nome_rgi": "Bauru" }, "geometry": { "type": "Point", "coordinates": [ -49.431760608103701, -22.12217038486521 ] } },
{ "type": "Feature", "properties": { "codigo_municipio": "3533205", "nome_municipio": "Nova Independência", "area_km2": 265.029, "nome_regiao_imediata": "Araçatuba", "nome_rgi": "Andradina" }, "geometry": { "type": "Point", "coordinates": [ -51.505213354977357, -21.135299235307208 ] } },
{ "type": "Feature", "properties": { "codigo_municipio": "3521903", "nome_municipio": "Itajobi", "area_km2": 502.066, "nome_regiao_imediata": "São José do Rio Preto", "nome_rgi": "Catanduva" }, "geometry": { "type": "Point", "coordinates": [ -49.05371363657752, -21.355542302593392 ] } },
{ "type": "Feature", "properties": { "codigo_municipio": "3530607", "nome_municipio": "Mogi das Cruzes", "area_km2": 712.541, "nome_regiao_imediata": "São Paulo", "nome_rgi": "São Paulo" }, "geometry": { "type": "Point", "coordinates": [ -46.186071900976131, -23.569578187528151 ] } },
{ "type": "Feature", "properties": { "codigo_municipio": "3520608", "nome_municipio": "Indiana", "area_km2": 129.367, "nome_regiao_imediata": "Presidente Prudente", "nome_rgi": "Presidente Prudente" }, "geometry": { "type": "Point", "coordinates": [ -51.262551800764669, -22.133243946548397 ] } },
{ "type": "Feature", "properties": { "codigo_municipio": "3535408", "nome_municipio": "Panorama", "area_km2": 356.05, "nome_regiao_imediata": "Presidente Prudente", "nome_rgi": "Dracena" }, "geometry": { "type": "Point", "coordinates": [ -51.858066061429689, -21.463306121885324 ] } },
{ "type": "Feature", "properties": { "codigo_municipio": "3513801", "nome_municipio": "Diadema", "area_km2": 30.732, "nome_regiao_imediata": "São Paulo", "nome_rgi": "São Paulo" }, "geometry": { "type": "Point", "coordinates": [ -46.611428442223158, -23.697214278449991 ] } },
{ "type": "Feature", "properties": { "codigo_municipio": "3525409", "nome_municipio": "Jeriquara", "area_km2": 141.971, "nome_regiao_imediata": "Ribeirão Preto", "nome_rgi": "Franca" }, "geometry": { "type": "Point", "coordinates": [ -47.574192577949745, -20.34013683054199 ] } },
{ "type": "Feature", "properties": { "codigo_municipio": "3512506", "nome_municipio": "Coroados", "area_km2": 246.825, "nome_regiao_imediata": "Araçatuba", "nome_rgi": "Birigui - Penápolis" }, "geometry": { "type": "Point", "coordinates": [ -50.303403408299218, -21.375606232931442 ] } },
{ "type": "Feature", "properties": { "codigo_municipio": "3527306", "nome_municipio": "Louveira", "area_km2": 55.738, "nome_regiao_imediata": "Campinas", "nome_rgi": "Jundiaí" }, "geometry": { "type": "Point", "coordinates": [ -46.937629246574105, -23.0840390378516 ] } },
{ "type": "Feature", "properties": { "codigo_municipio": "3554805", "nome_municipio": "Tremembé", "area_km2": 191.094, "nome_regiao_imediata": "São José dos Campos", "nome_rgi": "Taubaté - Pindamonhangaba" }, "geometry": { "type": "Point", "coordinates": [ -45.60424365145122, -22.94083364149677 ] } },
{ "type": "Feature", "properties": { "codigo_municipio": "3504206", "nome_municipio": "Auriflama", "area_km2": 434.498, "nome_regiao_imediata": "Araçatuba", "nome_rgi": "Araçatuba" }, "geometry": { "type": "Point", "coordinates": [ -50.579959936318275, -20.644142154295547 ] } },
{ "type": "Feature", "properties": { "codigo_municipio": "3534104", "nome_municipio": "Oriente", "area_km2": 218.668, "nome_regiao_imediata": "Marília", "nome_rgi": "Marília" }, "geometry": { "type": "Point", "coordinates": [ -50.093726716186893, -22.14194758817424 ] } },
{ "type": "Feature", "properties": { "codigo_municipio": "3529104", "nome_municipio": "Marinópolis", "area_km2": 77.827, "nome_regiao_imediata": "São José do Rio Preto", "nome_rgi": "Jales" }, "geometry": { "type": "Point", "coordinates": [ -50.832319008981045, -20.479877899528404 ] } },
{ "type": "Feature", "properties": { "codigo_municipio": "3517307", "nome_municipio": "Guaimbê", "area_km2": 217.811, "nome_regiao_imediata": "Marília", "nome_rgi": "Marília" }, "geometry": { "type": "Point", "coordinates": [ -49.860641134103417, -21.878505066140299 ] } },
{ "type": "Feature", "properties": { "codigo_municipio": "3524105", "nome_municipio": "Ituverava", "area_km2": 704.659, "nome_regiao_imediata": "Ribeirão Preto", "nome_rgi": "Ituverava" }, "geometry": { "type": "Point", "coordinates": [ -47.809597954548508, -20.329528535622764 ] } },
{ "type": "Feature", "properties": { "codigo_municipio": "3514700", "nome_municipio": "Echaporã", "area_km2": 515.258, "nome_regiao_imediata": "Marília", "nome_rgi": "Marília" }, "geometry": { "type": "Point", "coordinates": [ -50.200620767094698, -22.448232402055819 ] } },
{ "type": "Feature", "properties": { "codigo_municipio": "3519105", "nome_municipio": "Iacanga", "area_km2": 547.393, "nome_regiao_imediata": "Bauru", "nome_rgi": "Bauru" }, "geometry": { "type": "Point", "coordinates": [ -49.039631110556648, -21.890907932412226 ] } },
{ "type": "Feature", "properties": { "codigo_municipio": "3500758", "nome_municipio": "Alambari", "area_km2": 159.6, "nome_regiao_imediata": "Sorocaba", "nome_rgi": "Itapetininga" }, "geometry": { "type": "Point", "coordinates": [ -47.869055054270746, -23.548927027833091 ] } },
{ "type": "Feature", "properties": { "codigo_municipio": "3547205", "nome_municipio": "Santana da Ponte Pensa", "area_km2": 129.888, "nome_regiao_imediata": "São José do Rio Preto", "nome_rgi": "Santa Fé do Sul" }, "geometry": { "type": "Point", "coordinates": [ -50.797099215091279, -20.260725867737047 ] } },
{ "type": "Feature", "properties": { "codigo_municipio": "3509908", "nome_municipio": "Cananéia", "area_km2": 1237.354, "nome_regiao_imediata": "Sorocaba", "nome_rgi": "Registro" }, "geometry": { "type": "Point", "coordinates": [ -48.008566503773544, -25.018446389792132 ] } },
{ "type": "Feature", "properties": { "codigo_municipio": "3511003", "nome_municipio": "Castilho", "area_km2": 1065.318, "nome_regiao_imediata": "Araçatuba", "nome_rgi": "Andradina" }, "geometry": { "type": "Point", "coordinates": [ -51.570251859882205, -20.89761044524839 ] } },
{ "type": "Feature", "properties": { "codigo_municipio": "3500303", "nome_municipio": "Aguaí", "area_km2": 474.554, "nome_regiao_imediata": "Campinas", "nome_rgi": "São João da Boa Vista" }, "geometry": { "type": "Point", "coordinates": [ -47.040319892945377, -22.049956302083515 ] } },
{ "type": "Feature", "properties": { "codigo_municipio": "3513405", "nome_municipio": "Cruzeiro", "area_km2": 305.699, "nome_regiao_imediata": "São José dos Campos", "nome_rgi": "Cruzeiro" }, "geometry": { "type": "Point", "coordinates": [ -45.006300998008832, -22.551430645676898 ] } },
{ "type": "Feature", "properties": { "codigo_municipio": "3512100", "nome_municipio": "Colômbia", "area_km2": 728.648, "nome_regiao_imediata": "Ribeirão Preto", "nome_rgi": "Barretos" }, "geometry": { "type": "Point", "coordinates": [ -48.721743954532641, -20.266873709971971 ] } },
{ "type": "Feature", "properties": { "codigo_municipio": "3557006", "nome_municipio": "Votorantim", "area_km2": 184.186, "nome_regiao_imediata": "Sorocaba", "nome_rgi": "Sorocaba" }, "geometry": { "type": "Point", "coordinates": [ -47.406525612312677, -23.579875394157714 ] } },
{ "type": "Feature", "properties": { "codigo_municipio": "3543709", "nome_municipio": "Rincão", "area_km2": 316.639, "nome_regiao_imediata": "Araraquara", "nome_rgi": "Araraquara" }, "geometry": { "type": "Point", "coordinates": [ -48.032030782831569, -21.593878539753312 ] } },
{ "type": "Feature", "properties": { "codigo_municipio": "3506003", "nome_municipio": "Bauru", "area_km2": 667.684, "nome_regiao_imediata": "Bauru", "nome_rgi": "Bauru" }, "geometry": { "type": "Point", "coordinates": [ -49.126134675165481, -22.253991891822903 ] } },
{ "type": "Feature", "properties": { "codigo_municipio": "3542404", "nome_municipio": "Regente Feijó", "area_km2": 263.313, "nome_regiao_imediata": "Presidente Prudente", "nome_rgi": "Presidente Prudente" }, "geometry": { "type": "Point", "coordinates": [ -51.29404956496991, -22.252507860657669 ] } },
{ "type": "Feature", "properties": { "codigo_municipio": "3545506", "nome_municipio": "Sandovalina", "area_km2": 455.856, "nome_regiao_imediata": "Presidente Prudente", "nome_rgi": "Presidente Prudente" }, "geometry": { "type": "Point", "coordinates": [ -51.842133970941873, -22.47786213257206 ] } },
{ "type": "Feature", "properties": { "codigo_municipio": "3544202", "nome_municipio": "Riolândia", "area_km2": 631.897, "nome_regiao_imediata": "São José do Rio Preto", "nome_rgi": "Votuporanga" }, "geometry": { "type": "Point", "coordinates": [ -49.709156934281893, -20.023507008710482 ] } },
{ "type": "Feature", "properties": { "codigo_municipio": "3526902", "nome_municipio": "Limeira", "area_km2": 580.711, "nome_regiao_imediata": "Campinas", "nome_rgi": "Limeira" }, "geometry": { "type": "Point", "coordinates": [ -47.363713461245581, -22.59850898960293 ] } },
{ "type": "Feature", "properties": { "codigo_municipio": "3516507", "nome_municipio": "Gabriel Monteiro", "area_km2": 138.681, "nome_regiao_imediata": "Araçatuba", "nome_rgi": "Birigui - Penápolis" }, "geometry": { "type": "Point", "coordinates": [ -50.564747439098831, -21.499590412967294 ] } },
{ "type": "Feature", "properties": { "codigo_municipio": "3549003", "nome_municipio": "São Francisco", "area_km2": 75.579, "nome_regiao_imediata": "São José do Rio Preto", "nome_rgi": "Jales" }, "geometry": { "type": "Point", "coordinates": [ -50.675865492989367, -20.365799377637614 ] } },
{ "type": "Feature", "properties": { "codigo_municipio": "3539806", "nome_municipio": "Poá", "area_km2": 17.264, "nome_regiao_imediata": "São Paulo", "nome_rgi": "São Paulo" }, "geometry": { "type": "Point", "coordinates": [ -46.346783285366605, -23.530476882465116 ] } },
{ "type": "Feature", "properties": { "codigo_municipio": "3509957", "nome_municipio": "Canas", "area_km2": 53.261, "nome_regiao_imediata": "São José dos Campos", "nome_rgi": "Guaratinguetá" }, "geometry": { "type": "Point", "coordinates": [ -45.041356356576962, -22.730070281381632 ] } },
{ "type": "Feature", "properties": { "codigo_municipio": "3508603", "nome_municipio": "Cachoeira Paulista", "area_km2": 287.99, "nome_regiao_imediata": "São José dos Campos", "nome_rgi": "Cruzeiro" }, "geometry": { "type": "Point", "coordinates": [ -44.991669926781114, -22.70237624434326 ] } },
{ "type": "Feature", "properties": { "codigo_municipio": "3538501", "nome_municipio": "Piquete", "area_km2": 175.996, "nome_regiao_imediata": "São José dos Campos", "nome_rgi": "Guaratinguetá" }, "geometry": { "type": "Point", "coordinates": [ -45.173773291708486, -22.590299186452587 ] } },
{ "type": "Feature", "properties": { "codigo_municipio": "3531100", "nome_municipio": "Mongaguá", "area_km2": 142.755, "nome_regiao_imediata": "São Paulo", "nome_rgi": "Santos" }, "geometry": { "type": "Point", "coordinates": [ -46.668070152698625, -24.070163715753139 ] } },
{ "type": "Feature", "properties": { "codigo_municipio": "3553500", "nome_municipio": "Tapiraí", "area_km2": 755.101, "nome_regiao_imediata": "Sorocaba", "nome_rgi": "Sorocaba" }, "geometry": { "type": "Point", "coordinates": [ -47.619391697153709, -24.008694695939429 ] } },
{ "type": "Feature", "properties": { "codigo_municipio": "3521101", "nome_municipio": "Ipeúna", "area_km2": 190.01, "nome_regiao_imediata": "Campinas", "nome_rgi": "Rio Claro" }, "geometry": { "type": "Point", "coordinates": [ -47.716025053785323, -22.423907603055042 ] } },
{ "type": "Feature", "properties": { "codigo_municipio": "3552205", "nome_municipio": "Sorocaba", "area_km2": 449.872, "nome_regiao_imediata": "Sorocaba", "nome_rgi": "Sorocaba" }, "geometry": { "type": "Point", "coordinates": [ -47.44676542591246, -23.464555685955744 ] } },
{ "type": "Feature", "properties": { "codigo_municipio": "3511904", "nome_municipio": "Clementina", "area_km2": 168.59, "nome_regiao_imediata": "Araçatuba", "nome_rgi": "Birigui - Penápolis" }, "geometry": { "type": "Point", "coordinates": [ -50.460069910078573, -21.570329178961995 ] } },
{ "type": "Feature", "properties": { "codigo_municipio": "3555307", "nome_municipio": "Turmalina", "area_km2": 147.797, "nome_regiao_imediata": "São José do Rio Preto", "nome_rgi": "Jales" }, "geometry": { "type": "Point", "coordinates": [ -50.456763363662255, -20.083546815785297 ] } },
{ "type": "Feature", "properties": { "codigo_municipio": "3510609", "nome_municipio": "Carapicuíba", "area_km2": 34.546, "nome_regiao_imediata": "São Paulo", "nome_rgi": "São Paulo" }, "geometry": { "type": "Point", "coordinates": [ -46.84192849442541, -23.550040639584136 ] } },
{ "type": "Feature", "properties": { "codigo_municipio": "3503802", "nome_municipio": "Artur Nogueira", "area_km2": 178.026, "nome_regiao_imediata": "Campinas", "nome_rgi": "Campinas" }, "geometry": { "type": "Point", "coordinates": [ -47.132152756632664, -22.561197661913383 ] } },
{ "type": "Feature", "properties": { "codigo_municipio": "3515202", "nome_municipio": "Estrela d'Oeste", "area_km2": 296.281, "nome_regiao_imediata": "São José do Rio Preto", "nome_rgi": "Fernandópolis" }, "geometry": { "type": "Point", "coordinates": [ -50.411467923804295, -20.265742701679212 ] } },
{ "type": "Feature", "properties": { "codigo_municipio": "3544251", "nome_municipio": "Rosana", "area_km2": 744.011, "nome_regiao_imediata": "Presidente Prudente", "nome_rgi": "Presidente Prudente" }, "geometry": { "type": "Point", "coordinates": [ -52.836903848245818, -22.48914619105555 ] } },
{ "type": "Feature", "properties": { "codigo_municipio": "3554003", "nome_municipio": "Tatuí", "area_km2": 523.749, "nome_regiao_imediata": "Sorocaba", "nome_rgi": "Tatuí" }, "geometry": { "type": "Point", "coordinates": [ -47.869513784112684, -23.36207887582642 ] } },
{ "type": "Feature", "properties": { "codigo_municipio": "3540705", "nome_municipio": "Porto Ferreira", "area_km2": 244.906, "nome_regiao_imediata": "Araraquara", "nome_rgi": "São Carlos" }, "geometry": { "type": "Point", "coordinates": [ -47.447175079355404, -21.842613221459512 ] } },
{ "type": "Feature", "properties": { "codigo_municipio": "3507308", "nome_municipio": "Boracéia", "area_km2": 122.11, "nome_regiao_imediata": "Bauru", "nome_rgi": "Jaú" }, "geometry": { "type": "Point", "coordinates": [ -48.788331181937473, -22.170147353883063 ] } },
{ "type": "Feature", "properties": { "codigo_municipio": "3509106", "nome_municipio": "Caiuá", "area_km2": 551.159, "nome_regiao_imediata": "Presidente Prudente", "nome_rgi": "Presidente Epitácio-Presidente Venceslau" }, "geometry": { "type": "Point", "coordinates": [ -51.986638462430342, -21.801456564258331 ] } },
{ "type": "Feature", "properties": { "codigo_municipio": "3537206", "nome_municipio": "Pedro de Toledo", "area_km2": 670.44, "nome_regiao_imediata": "São Paulo", "nome_rgi": "Santos" }, "geometry": { "type": "Point", "coordinates": [ -47.163528737247162, -24.163712789017811 ] } },
{ "type": "Feature", "properties": { "codigo_municipio": "3504701", "nome_municipio": "Balbinos", "area_km2": 91.635, "nome_regiao_imediata": "Bauru", "nome_rgi": "Bauru" }, "geometry": { "type": "Point", "coordinates": [ -49.33308238272096, -21.892412083224709 ] } },
{ "type": "Feature", "properties": { "codigo_municipio": "3527801", "nome_municipio": "Lupércio", "area_km2": 155.171, "nome_regiao_imediata": "Marília", "nome_rgi": "Marília" }, "geometry": { "type": "Point", "coordinates": [ -49.816989125118802, -22.427223723048368 ] } },
{ "type": "Feature", "properties": { "codigo_municipio": "3517802", "nome_municipio": "Guaraçaí", "area_km2": 569.197, "nome_regiao_imediata": "Araçatuba", "nome_rgi": "Andradina" }, "geometry": { "type": "Point", "coordinates": [ -51.279458352180271, -21.086422881463498 ] } },
{ "type": "Feature", "properties": { "codigo_municipio": "3526506", "nome_municipio": "Lavínia", "area_km2": 537.675, "nome_regiao_imediata": "Araçatuba", "nome_rgi": "Andradina" }, "geometry": { "type": "Point", "coordinates": [ -51.032631621888903, -21.150799304435008 ] } },
{ "type": "Feature", "properties": { "codigo_municipio": "3546801", "nome_municipio": "Santa Isabel", "area_km2": 363.332, "nome_regiao_imediata": "São Paulo", "nome_rgi": "São Paulo" }, "geometry": { "type": "Point", "coordinates": [ -46.242362217293156, -23.288942624483649 ] } },
{ "type": "Feature", "properties": { "codigo_municipio": "3540754", "nome_municipio": "Potim", "area_km2": 44.643, "nome_regiao_imediata": "São José dos Campos", "nome_rgi": "Guaratinguetá" }, "geometry": { "type": "Point", "coordinates": [ -45.303157512987298, -22.825294449959905 ] } },
{ "type": "Feature", "properties": { "codigo_municipio": "3549904", "nome_municipio": "São José dos Campos", "area_km2": 1099.409, "nome_regiao_imediata": "São José dos Campos", "nome_rgi": "São José dos Campos" }, "geometry": { "type": "Point", "coordinates": [ -45.928535989496275, -23.09056971375502 ] } },
{ "type": "Feature", "properties": { "codigo_municipio": "3548609", "nome_municipio": "São Bento do Sapucaí", "area_km2": 252.579, "nome_regiao_imediata": "São José dos Campos", "nome_rgi": "Taubaté - Pindamonhangaba" }, "geometry": { "type": "Point", "coordinates": [ -45.686806523996658, -22.681397324221468 ] } },
{ "type": "Feature", "properties": { "codigo_municipio": "3550704", "nome_municipio": "São Sebastião", "area_km2": 402.395, "nome_regiao_imediata": "São José dos Campos", "nome_rgi": "Caraguatatuba - Ubatuba - São Sebastião" }, "geometry": { "type": "Point", "coordinates": [ -45.60675496778267, -23.754375966327583 ] } },
{ "type": "Feature", "properties": { "codigo_municipio": "3521150", "nome_municipio": "Ipiguá", "area_km2": 136.028, "nome_regiao_imediata": "São José do Rio Preto", "nome_rgi": "São José do Rio Preto" }, "geometry": { "type": "Point", "coordinates": [ -49.403529894020423, -20.647986934380985 ] } },
{ "type": "Feature", "properties": { "codigo_municipio": "3503406", "nome_municipio": "Arealva", "area_km2": 506.226, "nome_regiao_imediata": "Bauru", "nome_rgi": "Bauru" }, "geometry": { "type": "Point", "coordinates": [ -48.981893110280609, -22.07629656285949 ] } },
{ "type": "Feature", "properties": { "codigo_municipio": "3502101", "nome_municipio": "Andradina", "area_km2": 964.226, "nome_regiao_imediata": "Araçatuba", "nome_rgi": "Andradina" },